scalerank,natscale,labelrank,featurecla,name,namepar,namealt,diffascii,nameascii,adm0cap,capalt,capin,worldcity,megacity,sov0name,sov_a3,adm0name,adm0_a3,adm1name,iso_a2,note,latitude,longitude,changed,namediff,diffnote,pop_max,pop_min,pop_other,rank_max,rank_min,geonameid,meganame,ls_name,ls_match,checkme,min_zoom,ne_id
10,1,8,Admin-1 capital,Colonia del Sacramento,,,0,Colonia del Sacramento,0,0,,0,0,Uruguay,URY,Uruguay,URY,Colonia,UY,,-34.4799990054,-57.8400024734,4,1,Added missing admin-1 capital. Population from GeoNames.,21714,21714,0,7,7,3443013,,,0,0,9,1159112629
10,1,8,Admin-1 capital,Trinidad,,,0,Trinidad,0,0,,0,0,Uruguay,URY,Uruguay,URY,Flores,UY,,-33.5439989374,-56.9009965602,4,1,Added missing admin-1 capital. Population from GeoNames.,21093,21093,0,7,7,3439749,,,0,0,9,1159112647
10,1,8,Admin-1 capital,Fray Bentos,,,0,Fray Bentos,0,0,,0,0,Uruguay,URY,Uruguay,URY,Río Negro,UY,,-33.1389990288,-58.3039974719,4,1,Added missing admin-1 capital. Population from GeoNames.,23279,23279,0,7,7,3442568,,,0,0,9,1159112663
10,1,8,Admin-1 capital,Canelones,,,0,Canelones,0,0,,0,0,Uruguay,URY,Uruguay,URY,Canelones,UY,,-34.5380040067,-56.2840014932,4,1,Added missing admin-1 capital. Population from GeoNames.,19698,19698,0,6,6,3443413,,,0,0,9,1159112679
10,1,8,Admin-1 capital,Florida,,,0,Florida,0,0,,0,0,Uruguay,URY,Uruguay,URY,Florida,UY,,-34.0990020052,-56.214998448,4,1,Added missing admin-1 capital. Population from GeoNames.,32234,32234,0,7,7,3442585,,,0,0,7,1159112703
10,1,8,Admin-1 capital,Bassar,,,0,Bassar,0,0,,0,0,Togo,TGO,Togo,TGO,Kara,TG,,9.26100006832,0.78900357378,4,1,Added missing admin-1 capital. Population from GeoNames.,61845,61845,0,8,8,2367568,,,0,0,9,1159112719
10,1,8,Admin-1 capital,Sotouboua,,,0,Sotouboua,0,0,,0,0,Togo,TGO,Togo,TGO,Centre,TG,,8.55700213306,0.98499646233,4,1,Added missing admin-1 capital. Population from GeoNames.,21054,21054,0,7,7,2364079,,,0,0,7,1159112735
10,1,7,Admin-1 capital,Medenine,,,0,Medenine,0,0,,0,0,Tunisia,TUN,Tunisia,TUN,MUdenine,TN,,33.3999990025,10.4166995576,4,1,Added missing admin-1 capital.,61705,61705,0,8,8,-1,,,0,0,6.1,1159112749
10,1,7,Admin-1 capital,Kebili,,,0,Kebili,0,0,,0,0,Tunisia,TUN,Tunisia,TUN,Kebili,TN,,33.6899970349,8.9710025379,4,1,Added missing admin-1 capital. Population from GeoNames.,19875,19875,0,6,6,2468018,,,0,0,9,1159112765
10,1,7,Admin-1 capital,Tataouine,,,0,Tataouine,0,0,,0,0,Tunisia,TUN,Tunisia,TUN,Tataouine,TN,,33.0000031543,10.4667035894,4,1,Added missing admin-1 capital. Population from GeoNames.,62577,62577,0,8,8,2464701,,,0,0,9,1159112779
10,1,7,Admin-1 capital,L'Ariana,,,0,L'Ariana,0,0,,0,0,Tunisia,TUN,Tunisia,TUN,Manubah,TN,,36.8666731534,10.1999975475,4,1,Added missing admin-1 capital.,97687,97687,0,8,8,2473247,,,0,0,8,1159112795
10,1,7,Admin-1 capital,Jendouba,,,0,Jendouba,0,0,,0,0,Tunisia,TUN,Tunisia,TUN,Jendouba,TN,,36.5000040594,8.74999861458,4,1,Added missing admin-1 capital. Population from GeoNames.,51408,51408,0,8,8,2470088,,,0,0,9,1159112811
10,1,7,Admin-1 capital,Kasserine,,,0,Kasserine,0,0,,0,0,Tunisia,TUN,Tunisia,TUN,Kasssrine,TN,,35.2167031048,8.71669850332,4,1,Added missing admin-1 capital.,76243,76243,0,8,8,-1,,,0,0,9,1159112827
10,1,7,Admin-1 capital,Sdid Bouzid,,,0,Sdid Bouzid,0,0,,0,0,Tunisia,TUN,Tunisia,TUN,Sidi Bou Zid,TN,,35.0166960791,9.50000448226,4,1,Added missing admin-1 capital. Population from GeoNames.,42098,42098,0,7,7,2465840,,,0,0,7,1159112843
10,1,7,Admin-1 capital,Siliana,,,0,Siliana,0,0,,0,0,Tunisia,TUN,Tunisia,TUN,Siliana,TN,,36.0833041252,9.38330159966,4,1,Added missing admin-1 capital. Population from GeoNames.,26960,26960,0,7,7,2465030,,,0,0,9,1159112859
10,1,7,Admin-1 capital,Mahdia,,,0,Mahdia,0,0,,0,0,Tunisia,TUN,Tunisia,TUN,Mahdia,TN,,35.4839130445,11.0408766153,4,1,Added missing admin-1 capital.,45977,45977,0,7,7,-1,,,0,0,8,1159112873
10,1,7,Admin-1 capital,Monastir,,,0,Monastir,0,0,,0,0,Tunisia,TUN,Tunisia,TUN,Monastir,TN,,35.7307021352,10.7672945619,4,1,Added missing admin-1 capital.,71546,41400,0,8,7,2473493,,,0,0,7,1159112893
10,1,7,Admin-1 capital,Zaghouan,,,0,Zaghouan,0,0,,0,0,Tunisia,TUN,Tunisia,TUN,Zaghouan,TN,,36.3999961613,10.1469966066,4,1,Added missing admin-1 capital. Population from GeoNames.,16911,16911,0,6,6,2464041,,,0,0,9,1159112913
10,1,5,Admin-1 capital,Tây Ninh,,,0,Tay Ninh,0,0,,0,0,Vietnam,VNM,Vietnam,VNM,Tây Ninh,VN,,11.3229991094,106.146999683,4,1,Added missing admin-1 capital. Population from GeoNames.,126370,126370,0,9,9,1566559,,,0,0,8,1159112935
10,1,5,Admin-1 capital,Luan Chau,,,0,Luan Chau,0,0,,0,0,Vietnam,VNM,Vietnam,VNM,Vi?n Bi,VN,,21.7400039919,103.34300468,4,1,Added missing admin-1 capital.,7335,7335,0,5,5,-1,,,0,0,8,1159112955
10,1,5,Admin-1 capital,Bắc Kạn,,,0,Bac Kan,0,0,,0,0,Vietnam,VNM,Vietnam,VNM,Ðông B?c,VN,,22.1333333,105.8333333,4,0,Added missing admin-1 capital round B. Population from GeoNames.,29227,29227,0,7,7,1591538,,,0,0,9,1159112975
10,1,5,Admin-1 capital,Lạng Sơn,,,0,Lang Son,0,0,,0,0,Vietnam,VNM,Vietnam,VNM,L?ng Son,VN,,21.845997103,106.757001576,4,1,Added missing admin-1 capital. Population from GeoNames.,148000,148000,0,9,9,1576633,,,0,0,9,1159112987
10,1,5,Admin-1 capital,Sơn La,,,0,Son La,0,0,,0,0,Vietnam,VNM,Vietnam,VNM,Son La,VN,,21.3280021387,103.910004651,4,1,Added missing admin-1 capital. Population from GeoNames.,19054,19054,0,6,6,1567681,,,0,0,8,1159113001
10,1,5,Admin-1 capital,Tuyên Quang,,,0,Tuyen Quang,0,0,,0,0,Vietnam,VNM,Vietnam,VNM,Tuyên Quang,VN,,21.8179980953,105.210999615,4,1,Added missing admin-1 capital. Population from GeoNames.,36430,36430,0,7,7,1563287,,,0,0,9,1159113019
10,1,5,Admin-1 capital,Yên Bái,,,0,Yen Bai,0,0,,0,0,Vietnam,VNM,Vietnam,VNM,Yên Bái,VN,,21.7050030395,104.875002586,4,1,Added missing admin-1 capital. Population from GeoNames.,96540,96540,0,8,8,1560349,,,0,0,8,1159113041
10,1,5,Admin-1 capital,Hai Duong,,,0,Hai Duong,0,0,,0,0,Vietnam,VNM,Vietnam,VNM,H?i Duong,VN,,20.9420010782,106.331004604,4,1,Added missing admin-1 capital. Population from GeoNames.,58030,58030,0,8,8,1581326,,,0,0,9,1159113057
10,1,5,Admin-1 capital,Thái Bình,,,0,Thai Binh,0,0,,0,0,Vietnam,VNM,Vietnam,VNM,ThMi Bmnh,VN,,20.4503041151,106.333029628,4,1,Added missing admin-1 capital.,210000,210000,0,10,10,1566346,,,0,0,8,1159113073
10,1,5,Admin-1 capital,Tuy Hòa,,,0,Tuy Hoa,0,0,,0,0,Vietnam,VNM,Vietnam,VNM,Phú Yên,VN,,13.0820040243,109.315998684,4,1,Added missing admin-1 capital. Population from GeoNames.,69596,69596,0,8,8,1563281,,,0,0,7,1159113089
10,1,5,Admin-1 capital,Thu Dau Mot,,,0,Thu Dau Mot,0,0,,0,0,Vietnam,VNM,Vietnam,VNM,Bình Duong,VN,,10.9690740774,106.652745547,4,1,Added missing admin-1 capital. Population from GeoNames.,244277,244277,0,10,10,1565022,,,0,0,9,1159113099
10,1,5,Admin-1 capital,Đông Hà,,,0,Dong Ha,0,0,,0,0,Vietnam,VNM,Vietnam,VNM,Qu?ng Tr?,VN,,16.8499981032,107.133300661,4,1,Added missing admin-1 capital. Population from GeoNames.,17662,17662,0,6,6,1582926,,,0,0,9,1159113119
10,1,5,Admin-1 capital,Cao Lãnh,,,0,Cao Lanh,0,0,,0,0,Vietnam,VNM,Vietnam,VNM,Ð?ng Tháp,VN,,10.4670001305,105.635997562,4,1,Added missing admin-1 capital. Population from GeoNames.,149837,149837,0,9,9,1586151,,,0,0,9,1159113135
10,1,5,Admin-1 capital,Truc Giang,,,0,Truc Giang,0,0,,0,0,Vietnam,VNM,Vietnam,VNM,B?n Tre,VN,,10.2349979978,106.374996615,4,1,Added missing admin-1 capital. Population from GeoNames.,59442,59442,0,8,8,1587976,,,0,0,8,1159113149
10,1,5,Admin-1 capital,Tra Vinh,,,0,Tra Vinh,0,0,,0,0,Vietnam,VNM,Vietnam,VNM,TrM Vinh,VN,,9.93400208679,106.334001679,4,1,Added missing admin-1 capital.,131360,131360,0,9,9,1563926,,,0,0,8,1159113161
10,1,5,Admin-1 capital,Vĩnh Long,,,0,Vinh Long,0,0,,0,0,Vietnam,VNM,Vietnam,VNM,Vinh Long,VN,,10.256003997,105.964002557,4,1,Added missing admin-1 capital. Population from GeoNames.,103314,103314,0,9,9,1562693,,,0,0,9,1159113175
10,1,5,Admin-1 capital,Cao Bằng,,,0,Cao Bang,0,0,,0,0,Vietnam,VNM,Vietnam,VNM,Cao B?ng,VN,,22.663998055,106.268004644,4,1,Added missing admin-1 capital. Population from GeoNames.,41112,41112,0,7,7,1586185,,,0,0,8,1159113189
10,1,8,Admin-1 capital,Yoro,,,0,Yoro,0,0,,0,0,Honduras,HND,Honduras,HND,Yoro,HN,,15.059997106,-87.2900005384,4,1,Added missing admin-1 capital. Population from GeoNames.,15774,15774,0,6,6,3600195,,,0,0,9,1159113205
10,1,8,Admin-1 capital,La Esperanza,,,0,La Esperanza,0,0,,0,0,Honduras,HND,Honduras,HND,Intibucá,HN,,14.3330040579,-88.1666995372,4,1,Added missing admin-1 capital. Population from GeoNames.,5318,5318,0,5,5,3607966,,,0,0,9,1159113221
10,1,8,Admin-1 capital,La Paz,,,0,La Paz,0,0,,0,0,Honduras,HND,Honduras,HND,La Paz,HN,,14.3199990281,-87.6840025685,4,1,Added missing admin-1 capital. Population from GeoNames.,17555,17555,0,6,6,3607254,,,0,0,9,1159113237
10,1,8,Admin-1 capital,Santa Bárbara,,,0,Santa Barbara,0,0,,0,0,Honduras,HND,Honduras,HND,Santa Bárbara,HN,,14.9190030426,-88.2359996256,4,1,Added missing admin-1 capital. Population from GeoNames.,15119,15119,0,6,6,3601691,,,0,0,9,1159113253
10,1,8,Admin-1 capital,Gracias,,,0,Gracias,0,0,,0,0,Honduras,HND,Honduras,HND,Lempira,HN,,14.583303057,-88.5833005122,4,1,Added missing admin-1 capital. Population from GeoNames.,7909,7909,0,5,5,3609586,,,0,0,9,1159113269
10,1,8,Admin-1 capital,Nueva Ocotepeque,,,0,Nueva Ocotepeque,0,0,,0,0,Honduras,HND,Honduras,HND,Ocotepeque,HN,,14.4369991194,-89.1819985474,4,1,Added missing admin-1 capital. Population from GeoNames.,8780,8780,0,5,5,3604384,,,0,0,9,1159113283
10,1,8,Admin-1 capital,Yuscarán,,,0,Yuscaran,0,0,,0,0,Honduras,HND,Honduras,HND,El Paraíso,HN,,13.9439969867,-86.850998537,4,1,Added missing admin-1 capital. Population from GeoNames.,2371,2371,0,4,4,3600165,,,0,0,9,1159113299
10,1,8,Admin-1 capital,Jérémie,,,0,Jeremie,0,0,,0,0,Haiti,HTI,Haiti,HTI,Grand'Anse,HT,,18.6339347272,-74.1184252634,4,1,Added missing admin-1 capital. Population from GeoNames.,30917,30917,0,7,7,3723593,,,0,0,7,1159113315
10,1,8,Admin-1 capital,Port-De-Paix,,,0,Port-De-Paix,0,0,,0,0,Haiti,HTI,Haiti,HTI,Nord-Ouest,HT,,19.9317600761,-72.8294845231,4,1,Added missing admin-1 capital. Population from GeoNames.,34657,34657,0,7,7,3740016,,,0,0,7,1159113331
10,1,8,Admin-1 capital,Hinche,,,0,Hinche,0,0,,0,0,Haiti,HTI,Haiti,HTI,Centre,HT,,19.1430000867,-72.0039956011,4,1,Added missing admin-1 capital. Population from GeoNames.,18590,18590,0,6,6,3723841,,,0,0,9,1159113347
10,1,8,Admin-1 capital,Fort-Liberté,,,0,Fort-Liberte,0,0,,0,0,Haiti,HTI,Haiti,HTI,Nord-Est,HT,,19.6655670335,-71.8448395405,4,1,Added missing admin-1 capital. Population from GeoNames.,11465,11465,0,6,6,3725170,,,0,0,9,1159113361
10,1,8,Admin-1 capital,Jacmel,,,0,Jacmel,0,0,,0,0,Haiti,HTI,Haiti,HTI,Sud-Est,HT,,18.2349990264,-72.5370025809,4,1,Added missing admin-1 capital. Population from GeoNames.,33563,33563,0,7,7,3723779,,,0,0,7,1159113371
10,1,5,Admin-1 capital,Kırklareli,,,0,Kirklareli,0,0,,0,0,Turkey,TUR,Turkey,TUR,Kirklareli,TR,,41.7429991699,27.2259996157,4,1,Added missing admin-1 capital. Population from GeoNames.,58223,58223,0,8,8,743166,,,0,0,7,1159113387
10,1,5,Admin-1 capital,Bilecik,,,0,Bilecik,0,0,,0,0,Turkey,TUR,Turkey,TUR,Bilecik,TR,,40.1499990223,29.9829965977,4,1,Added missing admin-1 capital. Population from GeoNames.,40285,40285,0,7,7,750598,,,0,0,7,1159113409
10,1,5,Admin-1 capital,Sakarya,,,0,Sakarya,0,0,,0,0,Turkey,TUR,Turkey,TUR,Sakarya,TR,,40.7666611361,30.4000025112,4,1,Added missing admin-1 capital. Population from GeoNames.,286787,286787,0,10,10,752850,,,0,0,7,1159113425
10,1,5,Admin-1 capital,Kastamonu,,,0,Kastamonu,0,0,,0,0,Turkey,TUR,Turkey,TUR,Kastamonu,TR,,41.3890021526,33.7830034905,4,1,Added missing admin-1 capital. Population from GeoNames.,70402,70402,0,8,8,743882,,,0,0,7,1159113441
10,1,5,Admin-1 capital,Burdur,,,0,Burdur,0,0,,0,0,Turkey,TUR,Turkey,TUR,Burdur,TR,,37.7166601109,30.2833355385,4,1,Added missing admin-1 capital. Population from GeoNames.,66158,66158,0,8,8,320392,,,0,0,7,1159113457
10,1,5,Admin-1 capital,Kırşehir,,,0,Kirsehir,0,0,,0,0,Turkey,TUR,Turkey,TUR,Kirsehir,TR,,39.1419991654,34.1710026008,4,1,Added missing admin-1 capital. Population from GeoNames.,94336,94336,0,8,8,307515,,,0,0,7,1159113471
10,1,5,Admin-1 capital,Nevşehir,,,0,Nevsehir,0,0,,0,0,Turkey,TUR,Turkey,TUR,Nevsehir,TR,,38.6240040356,34.7239985173,4,1,Added missing admin-1 capital. Population from GeoNames.,75527,75527,0,8,8,303831,,,0,0,7,1159113485
10,1,5,Admin-1 capital,Antioch,,,0,Antioch,0,0,,0,0,Turkey,TUR,Turkey,TUR,Hatay,TR,,36.2333340929,36.1166765584,4,1,Added missing admin-1 capital. Population from GeoNames.,154803,154803,0,9,9,323779,,,0,0,9,1159113499
10,1,5,Admin-1 capital,Giresun,,,0,Giresun,0,0,,0,0,Turkey,TUR,Turkey,TUR,Giresun,TR,,40.9130011491,38.3900045207,4,1,Added missing admin-1 capital. Population from GeoNames.,98864,98864,0,8,8,746881,,,0,0,7,1159113515
10,1,5,Admin-1 capital,Sinop,,,0,Sinop,0,0,,0,0,Turkey,TUR,Turkey,TUR,Sinop,TR,,42.0229980177,35.1530014997,4,1,Added missing admin-1 capital. Population from GeoNames.,34834,34834,0,7,7,739600,,,0,0,6.1,1159113529
10,1,5,Admin-1 capital,Tokat,,,0,Tokat,0,0,,0,0,Turkey,TUR,Turkey,TUR,Tokat,TR,,40.3059961652,36.5630045215,4,1,Added missing admin-1 capital. Population from GeoNames.,129702,129702,0,9,9,738743,,,0,0,6,1159113547
10,1,5,Admin-1 capital,Artvin,,Coruh,0,Artvin,0,0,,0,0,Turkey,TUR,Turkey,TUR,Artvin,TR,,41.1830011433,41.8179965353,4,1,Added missing admin-1 capital.,32272,23527,0,7,7,-1,,,0,0,7,1159113561
10,1,5,Admin-1 capital,Bingöl,,,0,Bingol,0,0,,0,0,Turkey,TUR,Turkey,TUR,Bingöl,TR,,38.8850040355,40.498002558,4,1,Added missing admin-1 capital. Population from GeoNames.,80568,80568,0,8,8,321082,,,0,0,7,1159113575
10,1,5,Admin-1 capital,Bitlis,,,0,Bitlis,0,0,,0,0,Turkey,TUR,Turkey,TUR,Bitlis,TR,,38.394000118,42.1229976473,4,1,Added missing admin-1 capital. Population from GeoNames.,62811,43109,0,8,7,321025,,,0,0,7,1159113589
10,1,5,Admin-1 capital,Kalangala,,,0,Kalangala,0,0,,0,0,Uganda,UGA,Uganda,UGA,Kalangala,UG,,-0.3088889,32.225,4,0,Added missing admin-1 capital round B. Population from GeoNames.,5200,5200,0,5,5,232571,,,0,0,7,1159113605
10,1,5,Admin-1 capital,Çankırı,,,0,Cankiri,0,0,,0,0,Turkey,TUR,Turkey,TUR,Çankiri,TR,,40.6070010123,33.6210035933,4,1,Added missing admin-1 capital. Population from GeoNames.,71379,71379,0,8,8,749748,,,0,0,7,1159113633
10,1,5,Admin-1 capital,Niğde,,,0,Nigde,0,0,,0,0,Turkey,TUR,Turkey,TUR,Nigde,TR,,37.9760041158,34.6940016254,4,1,Added missing admin-1 capital. Population from GeoNames.,91039,91039,0,8,8,303827,,,0,0,7,1159113643
10,1,5,Admin-1 capital,Yozgat,,,0,Yozgat,0,0,,0,0,Turkey,TUR,Turkey,TUR,Yozgat,TR,,39.8179980929,34.8149974851,4,1,Added missing admin-1 capital. Population from GeoNames.,87881,87881,0,8,8,296562,,,0,0,7,1159113661
10,1,5,Admin-1 capital,Gümüşhane,,,0,Gumushane,0,0,,0,0,Turkey,TUR,Turkey,TUR,Gümüshane,TR,,40.4640001285,39.4839996159,4,1,Added missing admin-1 capital. Population from GeoNames.,32250,32250,0,7,7,746425,,,0,0,7,1159113677
10,1,5,Admin-1 capital,Siirt,,,0,Siirt,0,0,,0,0,Turkey,TUR,Turkey,TUR,Siirt,TR,,37.9440000726,41.9329985769,4,1,Added missing admin-1 capital. Population from GeoNames.,114034,114034,0,9,9,300822,,,0,0,7,1159113695
10,1,5,Admin-1 capital,Tunceli,,,0,Tunceli,0,0,,0,0,Turkey,TUR,Turkey,TUR,Tunceli,TR,,39.1167000236,39.5333015006,4,1,Added missing admin-1 capital. Population from GeoNames.,29062,29062,0,7,7,298846,,,0,0,7,1159113711
10,1,5,Admin-1 capital,Kumi,,,0,Kumi,0,0,,0,0,Uganda,UGA,Uganda,UGA,Kumi,UG,,1.4608333,33.9361111,4,0,Added missing admin-1 capital round B. Population from GeoNames.,13000,13000,0,6,6,230584,,,0,0,7,1159113727
10,1,5,Admin-1 capital,Kaberamaido,,,0,Kaberamaido,0,0,,0,0,Uganda,UGA,Uganda,UGA,Kaberamaido,UG,,1.7388889,33.1594444,4,0,Added missing admin-1 capital round B. Population from GeoNames.,3400,3400,0,4,4,233019,,,0,0,9,1159113745
10,1,5,Admin-1 capital,Kayunga,,,0,Kayunga,0,0,,0,0,Uganda,UGA,Uganda,UGA,Kayunga,UG,,0.7025,32.8886111,4,0,Added missing admin-1 capital round B. Population from GeoNames.,21704,21704,0,7,7,231696,,,0,0,9,1159113757
10,1,5,Admin-1 capital,Iganga,,,0,Iganga,0,0,,0,0,Uganda,UGA,Uganda,UGA,Iganga,UG,,0.6091667,33.4686111,4,0,Added missing admin-1 capital round B. Population from GeoNames.,45024,45024,0,7,7,233275,,,0,0,9,1159113777
10,1,5,Admin-1 capital,Kamuli,,,0,Kamuli,0,0,,0,0,Uganda,UGA,Uganda,UGA,Kamuli,UG,,0.9472222,33.1197222,4,0,Added missing admin-1 capital round B. Population from GeoNames.,12764,12764,0,6,6,232397,,,0,0,7,1159113795
10,1,5,Admin-1 capital,Pallisa,,,0,Pallisa,0,0,,0,0,Uganda,UGA,Uganda,UGA,Pallisa,UG,,1.145,33.7094444,4,0,Added missing admin-1 capital round B. Population from GeoNames.,30745,30745,0,7,7,226823,,,0,0,9,1159113815
10,1,5,Admin-1 capital,Mpigi,,,0,Mpigi,0,0,,0,0,Uganda,UGA,Uganda,UGA,Mpigi,UG,,0.225,32.3136111,4,0,Added missing admin-1 capital round B. Population from GeoNames.,11082,11082,0,6,6,229024,,,0,0,9,1159113835
10,1,5,Admin-1 capital,Adjumani,,,0,Adjumani,0,0,,0,0,Uganda,UGA,Uganda,UGA,Adjumani,UG,,3.3613889,31.8097222,4,0,Added missing admin-1 capital round B. Population from GeoNames.,34700,34700,0,7,7,235489,,,0,0,9,1159113855
10,1,5,Admin-1 capital,Nebbi,,,0,Nebbi,0,0,,0,0,Uganda,UGA,Uganda,UGA,Nebbi,UG,,2.4758333,31.1025,4,0,Added missing admin-1 capital round B. Population from GeoNames.,30354,30354,0,7,7,227904,,,0,0,7,1159113869
10,1,5,Admin-1 capital,Kiboga,,,0,Kiboga,0,0,,0,0,Uganda,UGA,Uganda,UGA,Kiboga,UG,,0.9161111,31.7741667,4,0,Added missing admin-1 capital round B. Population from GeoNames.,14512,14512,0,6,6,231550,,,0,0,7,1159113887
10,1,5,Admin-1 capital,Nakasongola,,,0,Nakasongola,0,0,,0,0,Uganda,UGA,Uganda,UGA,Nakasongola,UG,,1.3088889,32.4563889,4,0,Added missing admin-1 capital round B. Population from GeoNames.,6921,6921,0,5,5,228418,,,0,0,7,1159113905
10,1,5,Admin-1 region capital,Bombo,,,0,Bombo,0,0,,0,0,Uganda,UGA,Uganda,UGA,Bamunanika,UG,,0.58329910562,32.5332995249,4,1,Added missing admin-1 capital. Changed feature to Admin-0 region capital.,75000,21000,0,8,7,0,,,0,0,7,1159113923
10,1,5,Admin-1 capital,Masindi,,,0,Masindi,0,0,,0,0,Uganda,UGA,Uganda,UGA,Masindi,UG,,1.6744444,31.715,4,0,Added missing admin-1 capital round B. Population from GeoNames.,31486,31486,0,7,7,229362,,,0,0,7,1159113945
10,1,5,Admin-1 region capital,Fort Portal,,,0,Fort Portal,0,0,,0,0,Uganda,UGA,Uganda,UGA,Kabarole,UG,,0.67100412113,30.275001616,4,1,Added missing admin-1 capital. Changed feature to Admin-0 region capital. Population from GeoNames.,42670,42670,0,7,7,233476,,,0,0,7,1159113959
10,1,5,Admin-1 capital,Kibale,,,0,Kibale,0,0,,0,0,Uganda,UGA,Uganda,UGA,Kibale,UG,,0.8,31.0666667,4,0,Added missing admin-1 capital round B. Population from GeoNames.,5200,5200,0,5,5,231617,,,0,0,9,1159113985
10,1,5,Admin-1 capital,Sironko,,,0,Sironko,0,0,,0,0,Uganda,UGA,Uganda,UGA,Budadiri,UG,,1.25,34.3,4,0,Added missing admin-1 capital round B. Population from GeoNames.,14100,14100,0,6,6,448228,,,0,0,9,1159114003
10,1,5,Admin-1 capital,Busia,,,0,Busia,0,0,,0,0,Uganda,UGA,Uganda,UGA,Busia,UG,,0.4544444,34.0758333,4,0,Added missing admin-1 capital round B. Population from GeoNames.,47100,47100,0,7,7,234077,,,0,0,8,1159114009
10,1,5,Admin-1 capital,Katakwi,,,0,Katakwi,0,0,,0,0,Uganda,UGA,Uganda,UGA,Usuk,UG,,1.8911111,33.9661111,4,0,Added missing admin-1 capital round B. Population from GeoNames.,8400,8400,0,5,5,231947,,,0,0,9,1159114039
10,1,6,Admin-1 capital,Veszprém,,,0,Veszprem,0,0,,0,0,Hungary,HUN,Hungary,HUN,Veszprém,HU,,47.0909971373,17.9109995685,4,1,Added missing admin-1 capital. Population from GeoNames.,62023,62023,0,8,8,3042929,,,0,0,8,1159114055
10,1,6,Admin-1 capital,Zalaegerszeg,,,0,Zalaegerszeg,0,0,,0,0,Hungary,HUN,Hungary,HUN,Zala,HU,,46.8440010266,16.8399995861,4,1,Added missing admin-1 capital. Population from GeoNames.,61898,61898,0,8,8,3042638,,,0,0,7,1159114075
10,1,6,Admin-1 capital,Tatabánya,,,0,Tatabanya,0,0,,0,0,Hungary,HUN,Hungary,HUN,Komárom-Esztergom,HU,,47.5499971771,18.4329995683,4,1,Added missing admin-1 capital. Population from GeoNames.,70541,70541,0,8,8,3044082,,,0,0,9,1159114091
10,1,6,Admin-1 capital,Szekszárd,,,0,Szekszard,0,0,,0,0,Hungary,HUN,Hungary,HUN,Tolna,HU,,46.3439971148,18.7129985816,4,1,Added missing admin-1 capital. Population from GeoNames.,34174,34174,0,7,7,3044760,,,0,0,8,1159114109
10,1,6,Admin-1 capital,Salgótarján,,,0,Salgotarjan,0,0,,0,0,Hungary,HUN,Hungary,HUN,Nógrád,HU,,48.1050000794,19.8260016264,4,1,Added missing admin-1 capital. Population from GeoNames.,39640,39640,0,7,7,3045643,,,0,0,8,1159114123
10,1,6,Admin-1 capital,Békéscsaba,,,0,Bekescsaba,0,0,,0,0,Hungary,HUN,Hungary,HUN,Békés,HU,,46.6720021103,21.1010045684,4,1,Added missing admin-1 capital. Population from GeoNames.,65206,65206,0,8,8,722437,,,0,0,8,1159114145
10,1,6,Admin-1 capital,Eger,,,0,Eger,0,0,,0,0,Hungary,HUN,Hungary,HUN,Heves,HU,,47.8950031362,20.3830025784,4,1,Added missing admin-1 capital. Population from GeoNames.,56647,56647,0,8,8,721239,,,0,0,7.7,1159114165
10,1,5,Admin-1 capital,Ntungamo,,,0,Ntungamo,0,0,,0,0,Uganda,UGA,Uganda,UGA,Ntungamo,UG,,-0.8794444,30.2641667,4,0,Added missing admin-1 capital round B. Population from GeoNames.,16400,16400,0,6,6,227593,,,0,0,7,1159114181
10,1,5,Admin-1 capital,Kisoro,,,0,Kisoro,0,0,,0,0,Uganda,UGA,Uganda,UGA,Kisoro,UG,,-1.3538889,29.6983333,4,0,Added missing admin-1 capital round B. Population from GeoNames.,12900,12900,0,6,6,230993,,,0,0,9,1159114209
10,1,0,Admin-1 capital,Gikongoro,,,0,Gikongoro,0,0,,0,0,Rwanda,RWA,Rwanda,RWA,Southern,RW,,-2.48329794474,29.566701602,4,1,Added missing admin-1 capital. Population from GeoNames.,15000,15000,0,6,6,202239,,,0,0,9,1159114227
10,1,0,Admin-1 capital,Kibuye,,,0,Kibuye,0,0,,0,0,Rwanda,RWA,Rwanda,RWA,Western,RW,,-2.05000198533,29.3499995919,4,1,Added missing admin-1 capital. Population from GeoNames.,48024,48024,0,7,7,202065,,,0,0,8,1159114229
10,1,0,Admin-1 capital,Kibungo,,,0,Kibungo,0,0,,0,0,Rwanda,RWA,Rwanda,RWA,Eastern,RW,,-2.16669593181,30.5333015845,4,1,Added missing admin-1 capital. Population from GeoNames.,46240,46240,0,7,7,202068,,,0,0,9,1159114247
10,1,6,Admin-1 capital,Târgu Jiu,,,0,Targu Jiu,0,0,,0,0,Romania,ROU,Romania,ROU,Gorj,RO,,45.0450000352,23.2740006154,4,1,Added missing admin-1 capital. Population from GeoNames.,97179,97179,0,8,8,665010,,,0,0,6.7,1159114265
10,1,6,Admin-1 capital,Slatina,,,0,Slatina,0,0,,0,0,Romania,ROU,Romania,ROU,Olt,RO,,44.4349981422,24.3710015559,4,1,Added missing admin-1 capital. Population from GeoNames.,78988,78988,0,8,8,666767,,,0,0,8,1159114283
10,1,6,Admin-1 capital,Alexandria,,,0,Alexandria,0,0,,0,0,Romania,ROU,Romania,ROU,Teleorman,RO,,43.9016310699,25.2867065425,4,1,Added missing admin-1 capital. Population from GeoNames.,49346,49346,0,7,7,686502,,,0,0,9,1159114301
10,1,6,Admin-1 capital,Târgoviște,,,1,Targoviste,0,0,,0,0,Romania,ROU,Romania,ROU,Dâmbovita,RO,,44.9379991285,25.459002502,4,1,Added missing admin-1 capital. Population from GeoNames.,88435,88435,0,8,8,665024,,,0,0,9,1159114313
10,1,6,Admin-1 capital,Giurgiu,,,0,Giurgiu,0,0,,0,0,Romania,ROU,Romania,ROU,Giurgiu,RO,,43.9299991062,25.8399995022,4,1,Added missing admin-1 capital. Population from GeoNames.,69067,69067,0,8,8,677106,,,0,0,9,1159114333
10,1,6,Admin-1 capital,Slobozia,,,0,Slobozia,0,0,,0,0,Romania,ROU,Romania,ROU,Ialomita,RO,,44.5699980566,27.3819965932,4,1,Added missing admin-1 capital. Population from GeoNames.,52693,52693,0,8,8,666715,,,0,0,8,1159114405
10,1,6,Admin-1 capital,Dar'a,,,0,Dar'a,0,0,,0,0,Syria,SYR,Syria,SYR,Dar`a,SY,,32.6250001377,36.1050035066,4,1,Added missing admin-1 capital.,146481,97969,0,9,8,170905,,,0,0,8,1159114421
10,1,7,Admin-1 capital,Delémont,,,0,Delemont,0,0,,0,0,Switzerland,CHE,Switzerland,CHE,Jura,CH,,47.3699971258,7.34499948764,4,1,Added missing admin-1 capital. Population from GeoNames.,11315,11315,0,6,6,2661035,,,0,0,8,1159114441
10,1,7,Admin-1 capital,Neuchâtel,,,0,Neuchatel,0,0,,0,0,Switzerland,CHE,Switzerland,CHE,Neuchâtel,CH,,46.9989991447,6.9229986154,4,1,Added missing admin-1 capital. Population from GeoNames.,31270,31270,0,7,7,2659496,,,0,0,9,1159114457
10,1,7,Admin-1 capital,Aarau,,,0,Aarau,0,0,,0,0,Switzerland,CHE,Switzerland,CHE,Aargau,CH,,47.3900041002,8.03400361048,4,1,Added missing admin-1 capital. Population from GeoNames.,15501,15501,0,6,6,2661881,,,0,0,8,1159114477
10,1,7,Admin-1 capital,Stans,,,0,Stans,0,0,,0,0,Switzerland,CHE,Switzerland,CHE,Nidwalden,CH,,46.9500030739,8.38330254672,4,1,Added missing admin-1 capital. Population from GeoNames.,7475,7475,0,5,5,2658504,,,0,0,9,1159114501
10,1,7,Admin-1 capital,Sion,,,0,Sion,0,0,,0,0,Switzerland,CHE,Switzerland,CHE,Valais,CH,,46.2390030286,7.35399948193,4,1,Added missing admin-1 capital. Population from GeoNames.,28045,28045,0,7,7,2658576,,,0,0,8,1159114521
10,1,7,Admin-1 capital,Herisau,,,0,Herisau,0,0,,0,0,Switzerland,CHE,Switzerland,CHE,Appenzell Ausserrhoden,CH,,47.3832990333,9.28330247214,4,1,Added missing admin-1 capital. Population from GeoNames.,15438,15438,0,6,6,2660365,,,0,0,9,1159114539
10,1,7,Admin-1 capital,Saint Gallen,,,0,Saint Gallen,0,0,,0,0,Switzerland,CHE,Switzerland,CHE,Sankt Gallen,CH,,47.4229980667,9.36199855724,4,1,Added missing admin-1 capital. Population from GeoNames.,70572,70572,0,8,8,2658822,,,0,0,9,1159114557
10,1,7,Admin-1 capital,Bellinzona,,,0,Bellinzona,0,0,,0,0,Switzerland,CHE,Switzerland,CHE,Ticino,CH,,46.1970001317,9.01999860875,4,1,Added missing admin-1 capital. Population from GeoNames.,16572,16572,0,6,6,2661567,,,0,0,8,1159114577
10,1,7,Admin-1 capital,Glarus,,,0,Glarus,0,0,,0,0,Switzerland,CHE,Switzerland,CHE,Glarus,CH,,47.0500020359,9.06669958673,4,1,Added missing admin-1 capital. Population from GeoNames.,5681,5681,0,5,5,2660594,,,0,0,9,1159114593
10,1,7,Admin-1 capital,Schaffhausen,,,0,Schaffhausen,0,0,,0,0,Switzerland,CHE,Switzerland,CHE,Schaffhausen,CH,,47.7060030907,8.63299852333,4,1,Added missing admin-1 capital. Population from GeoNames.,33863,33863,0,7,7,2658761,,,0,0,7,1159114605
10,1,7,Admin-1 capital,Schwyz,,,0,Schwyz,0,0,,0,0,Switzerland,CHE,Switzerland,CHE,Schwyz,CH,,47.0199960424,8.64800160284,4,1,Added missing admin-1 capital. Population from GeoNames.,14177,14177,0,6,6,2658665,,,0,0,9,1159114627
10,1,7,Admin-1 capital,Frauenfeld,,,0,Frauenfeld,0,0,,0,0,Switzerland,CHE,Switzerland,CHE,Thurgau,CH,,47.5679971657,9.10800050195,4,1,Added missing admin-1 capital. Population from GeoNames.,21979,21979,0,7,7,2660727,,,0,0,9,1159114649
10,1,7,Admin-1 capital,Altdorf,,,0,Altdorf,0,0,,0,0,Switzerland,CHE,Switzerland,CHE,Uri,CH,,46.8790021444,8.6380025837,4,1,Added missing admin-1 capital. Population from GeoNames.,8678,8678,0,5,5,2661780,,,0,0,9,1159114659
10,1,7,Admin-1 capital,Zug,,,0,Zug,0,0,,0,0,Switzerland,CHE,Switzerland,CHE,Zug,CH,,47.1789990305,8.48700056499,4,1,Added missing admin-1 capital. Population from GeoNames.,23435,23435,0,7,7,2657908,,,0,0,8,1159114687
10,1,7,Admin-1 capital,Falun,,,0,Falun,0,0,,0,0,Sweden,SWE,Sweden,SWE,Dalarna,SE,,60.6130020356,15.6470045537,4,1,Added missing admin-1 capital. Population from GeoNames.,36477,36477,0,7,7,2715459,,,0,0,7,1159114705
10,1,7,Admin-1 capital,Nyköping,,,0,Nykoping,0,0,,0,0,Sweden,SWE,Sweden,SWE,Södermanland,SE,,58.7639971778,17.0150045131,4,1,Added missing admin-1 capital. Population from GeoNames.,27582,27582,0,7,7,2687700,,,0,0,7,1159114723
10,1,7,Admin-1 capital,Härnösand,,,0,Harnosand,0,0,,0,0,Sweden,SWE,Sweden,SWE,Västernorrland,SE,,62.6339970391,17.9340036175,4,1,Added missing admin-1 capital. Population from GeoNames.,17016,17016,0,6,6,2707684,,,0,0,9,1159114733
10,1,7,Admin-1 capital,Karlskrona,,,0,Karlskrona,0,0,,0,0,Sweden,SWE,Sweden,SWE,Blekinge,SE,,56.2030021859,15.2960046109,4,1,Added missing admin-1 capital.,35212,35212,0,7,7,2701713,,,0,0,6.7,1159114749
10,1,6,Admin-1 capital,Alba Lulia,,,0,Alba Lulia,0,0,,0,0,Romania,ROU,Romania,ROU,Alba,RO,,46.0770031313,23.5800005868,4,1,Added missing admin-1 capital. Population from GeoNames.,66085,66085,0,8,8,686578,,,0,0,8,1159114767
10,1,6,Admin-1 capital,Bistrița,,,0,Bistrita,0,0,,0,0,Romania,ROU,Romania,ROU,Bistrita-Nasaud,RO,,47.1380040946,24.5130035803,4,1,Added missing admin-1 capital. Population from GeoNames.,81318,81318,0,8,8,684657,,,0,0,8,1159114783
10,1,6,Admin-1 capital,Deva,,,0,Deva,0,0,,0,0,Romania,ROU,Romania,ROU,Hunedoara,RO,,45.8833230424,22.9166735704,4,1,Added missing admin-1 capital. Population from GeoNames.,67802,67802,0,8,8,679452,,,0,0,6.7,1159114801
10,1,6,Admin-1 capital,Zalău,,,0,Zalau,0,0,,0,0,Romania,ROU,Romania,ROU,Salaj,RO,,47.1750030966,23.0630044819,4,1,Added missing admin-1 capital. Population from GeoNames.,63232,63232,0,8,8,662334,,,0,0,8,1159114819
10,1,6,Admin-1 capital,Satu Mare,,,0,Satu Mare,0,0,,0,0,Romania,ROU,Romania,ROU,Satu Mare,RO,,47.7919981635,22.8850024803,4,1,Added missing admin-1 capital. Population from GeoNames.,112490,112490,0,9,9,667873,,,0,0,6,1159114839
10,1,6,Admin-1 capital,Rimnicu Vilcea,,,0,Rimnicu Vilcea,0,0,,0,0,Romania,ROU,Romania,ROU,Vâlcea,RO,,45.1099980449,24.3829986247,4,1,Added missing admin-1 capital. Population from GeoNames.,107558,107558,0,9,9,668872,,,0,0,9,1159114857
10,1,6,Admin-1 capital,Sfintu-Gheorghe,,,0,Sfintu-Gheorghe,0,0,,0,0,Romania,ROU,Romania,ROU,Covasna,RO,,45.8679961114,25.793001481,4,1,Added missing admin-1 capital. Population from GeoNames.,60677,60677,0,8,8,667303,,,0,0,9,1159114867
10,1,6,Admin-1 capital,Miercurea Cuic,,,0,Miercurea Cuic,0,0,,0,0,Romania,ROU,Romania,ROU,Harghita,RO,,46.3609980786,25.5240005117,4,1,Added missing admin-1 capital.,42029,37980,0,7,7,8334612,,,0,0,8,1159114889
10,1,6,Admin-1 capital,Piatra-Neamt,,,0,Piatra-Neamt,0,0,,0,0,Romania,ROU,Romania,ROU,Neamt,RO,,46.9400040547,26.3829965651,4,1,Added missing admin-1 capital. Population from GeoNames.,102688,102688,0,9,9,670889,,,0,0,7,1159114907
10,1,6,Admin-1 capital,Brăila,,,0,Braila,0,0,,0,0,Romania,ROU,Romania,ROU,Braila,RO,,45.2919961459,27.9690035388,4,1,Added missing admin-1 capital. Population from GeoNames.,213569,213569,0,10,10,683902,,,0,0,9,1159114919
10,1,6,Admin-1 capital,Vaslui,,,0,Vaslui,0,0,,0,0,Romania,ROU,Romania,ROU,Vaslui,RO,,46.6333290756,27.7333385907,4,1,Added missing admin-1 capital. Population from GeoNames.,69225,69225,0,8,8,663118,,,0,0,8,1159114937
10,1,6,Admin-1 capital,Salyan,,,0,Salyan,0,0,,0,0,Nepal,NPL,Nepal,NPL,Rapti,NP,,28.3500000369,82.1833025536,4,1,Added missing admin-1 capital.,15000,15000,0,6,6,0,,,0,0,9,1159114955
10,1,5,Admin-1 capital,Mae Hong Son,,,0,Mae Hong Son,0,0,,0,0,Thailand,THA,Thailand,THA,Mae Hong Son,TH,,19.30100405,97.9689966529,4,1,Added missing admin-1 capital. Population from GeoNames.,9109,9109,0,5,5,1152222,,,0,0,8,1159114969
10,1,5,Admin-1 capital,Phangnga,,,0,Phangnga,0,0,,0,0,Thailand,THA,Thailand,THA,Phangnga,TH,,8.4510000858,98.5339985744,4,1,Added missing admin-1 capital. Population from GeoNames.,9676,9676,0,5,5,1151464,,,0,0,8,1159114987
10,1,5,Admin-1 capital,Ranong,,,0,Ranong,0,0,,0,0,Thailand,THA,Thailand,THA,Ranong,TH,,9.96200109451,98.6380025719,4,1,Added missing admin-1 capital. Population from GeoNames.,24561,24561,0,7,7,1150965,,,0,0,7,1159115007
10,1,5,Admin-1 capital,Krabi,,,0,Krabi,0,0,,0,0,Thailand,THA,Thailand,THA,Krabi,TH,,8.05200309702,98.9119986655,4,1,Added missing admin-1 capital. Population from GeoNames.,31219,31219,0,7,7,1152633,,,0,0,9,1159115029
10,1,5,Admin-1 capital,Phatthalung,,,0,Phatthalung,0,0,,0,0,Thailand,THA,Thailand,THA,Phatthalung,TH,,7.61499897978,100.08099956,4,1,Added missing admin-1 capital. Population from GeoNames.,43522,43522,0,7,7,1607779,,,0,0,8,1159115055
10,1,5,Admin-1 capital,Satun,,,0,Satun,0,0,,0,0,Thailand,THA,Thailand,THA,Satun,TH,,6.61670109886,100.066698628,4,1,Added missing admin-1 capital. Population from GeoNames.,34544,34544,0,7,7,1606376,,,0,0,8,1159115073
10,1,5,Admin-1 capital,Lamphun,,,0,Lamphun,0,0,,0,0,Thailand,THA,Thailand,THA,Lamphun,TH,,18.5030011363,99.0739985627,4,1,Added missing admin-1 capital. Population from GeoNames.,14030,14030,0,6,6,1152468,,,0,0,8,1159115095
10,1,5,Admin-1 capital,Kamphaeng Phet,,,0,Kamphaeng Phet,0,0,,0,0,Thailand,THA,Thailand,THA,Kamphaeng Phet,TH,,16.4729970369,99.5290026685,4,1,Added missing admin-1 capital. Population from GeoNames.,58787,58787,0,8,8,1153090,,,0,0,9,1159115115
10,1,5,Admin-1 capital,Phichit,,,0,Phichit,0,0,,0,0,Thailand,THA,Thailand,THA,Phichit,TH,,16.4390040456,100.34900167,4,1,Added missing admin-1 capital. Population from GeoNames.,35760,35760,0,7,7,1607725,,,0,0,8,1159115131
10,1,5,Admin-1 capital,Phetchabun,,,0,Phetchabun,0,0,,0,0,Thailand,THA,Thailand,THA,Phetchabun,TH,,16.4189970712,101.159001653,4,1,Added missing admin-1 capital. Population from GeoNames.,50656,50656,0,8,8,1607737,,,0,0,8,1159115143
10,1,5,Admin-1 capital,Supham Buri,,,0,Supham Buri,0,0,,0,0,Thailand,THA,Thailand,THA,Suphan Buri,TH,,14.4710010468,100.128996606,4,1,Added missing admin-1 capital. Population from GeoNames.,53399,53399,0,8,8,1606033,,,0,0,9,1159115163
10,1,5,Admin-1 capital,Ang Thong,,,0,Ang Thong,0,0,,0,0,Thailand,THA,Thailand,THA,Ang Thong,TH,,14.583303057,100.449999657,4,1,Added missing admin-1 capital. Population from GeoNames.,13738,13738,0,6,6,1621035,,,0,0,8,1159115183
10,1,5,Admin-1 capital,Chainat,,,0,Chainat,0,0,,0,0,Thailand,THA,Thailand,THA,Chai Nat,TH,,15.1790040176,100.125999697,4,1,Added missing admin-1 capital. Population from GeoNames.,15469,15469,0,6,6,1611416,,,0,0,9,1159115203
10,1,5,Admin-1 capital,Nakhon Nayok,,,0,Nakhon Nayok,0,0,,0,0,Thailand,THA,Thailand,THA,Nakhon Nayok,TH,,14.2000020278,101.215998693,4,1,Added missing admin-1 capital. Population from GeoNames.,21309,21309,0,7,7,1608539,,,0,0,9,1159115223
10,1,5,Admin-1 capital,Sing Buri,,,0,Sing Buri,0,0,,0,0,Thailand,THA,Thailand,THA,Sing Buri,TH,,14.8869989993,100.401003586,4,1,Added missing admin-1 capital. Population from GeoNames.,20046,20046,0,7,7,1606270,,,0,0,7,1159115235
10,1,5,Admin-1 capital,Nakhon Pathom,,,0,Nakhon Pathom,0,0,,0,0,Thailand,THA,Thailand,THA,Nakhon Pathom,TH,,13.8179970666,100.063998597,4,1,Added missing admin-1 capital. Population from GeoNames.,117927,117927,0,9,9,1608534,,,0,0,9,1159115261
10,1,5,Admin-1 capital,Prachuap Khiri Khan,,,0,Prachuap Khiri Khan,0,0,,0,0,Thailand,THA,Thailand,THA,Prachuap Khiri Khan,TH,,11.8029960468,99.8000016876,4,1,Added missing admin-1 capital. Population from GeoNames.,33521,33521,0,7,7,1151074,,,0,0,7,1159115287
10,1,5,Admin-1 capital,Samut Sakhon,,,0,Samut Sakhon,0,0,,0,0,Thailand,THA,Thailand,THA,Samut Sakhon,TH,,13.5360000036,100.274004641,4,1,Added missing admin-1 capital. Population from GeoNames.,63498,63498,0,8,8,1606588,,,0,0,9,1159115295
10,1,5,Admin-1 capital,Samut Songkhram,,,0,Samut Songkhram,0,0,,0,0,Thailand,THA,Thailand,THA,Samut Songkhram,TH,,13.4129969926,100.000998636,4,1,Added missing admin-1 capital. Population from GeoNames.,35065,35065,0,7,7,1606586,,,0,0,9,1159115325
10,1,5,Admin-1 capital,Yasothon,,,0,Yasothon,0,0,,0,0,Thailand,THA,Thailand,THA,Yasothon,TH,,15.7879981151,104.150997677,4,1,Added missing admin-1 capital. Population from GeoNames.,21643,21643,0,7,7,1604769,,,0,0,7,1159115345
10,1,5,Admin-1 capital,Chachoengsao,,,0,Chachoengsao,0,0,,0,0,Thailand,THA,Thailand,THA,Chachoengsao,TH,,13.6790010529,101.076003654,4,1,Added missing admin-1 capital. Population from GeoNames.,49741,49741,0,7,7,1611439,,,0,0,9,1159115365
10,1,5,Admin-1 capital,Trat,,,0,Trat,0,0,,0,0,Thailand,THA,Thailand,THA,Trat,TH,,12.2370030894,102.509001624,4,1,Added missing admin-1 capital. Population from GeoNames.,21590,21590,0,7,7,1605279,,,0,0,8,1159115385
10,1,5,Admin-1 capital,Kalasin,,,0,Kalasin,0,0,,0,0,Thailand,THA,Thailand,THA,Kalasin,TH,,16.4279970655,103.509000677,4,1,Added missing admin-1 capital. Population from GeoNames.,55102,55102,0,8,8,1610469,,,0,0,9,1159115405
10,1,5,Admin-1 capital,Maha Sarakham,,,0,Maha Sarakham,0,0,,0,0,Thailand,THA,Thailand,THA,Maha Sarakham,TH,,16.1839980293,103.298004543,4,1,Added missing admin-1 capital. Population from GeoNames.,51584,51584,0,8,8,1608900,,,0,0,8,1159115425
10,1,5,Admin-1 capital,Roi Et,,,0,Roi Et,0,0,,0,0,Thailand,THA,Thailand,THA,Roi Et,TH,,16.0509959992,103.654998635,4,1,Added missing admin-1 capital. Population from GeoNames.,39328,39328,0,7,7,1607001,,,0,0,8,1159115449
10,1,5,Admin-1 capital,Pattani,,,0,Pattani,0,0,,0,0,Thailand,THA,Thailand,THA,Pattani,TH,,6.86400302337,101.25000062,4,1,Added missing admin-1 capital. Population from GeoNames.,150000,43631,0,9,7,1607978,,,0,0,9,1159115473
10,1,8,Admin-1 capital,Piggs Peak,,,0,Piggs Peak,0,0,,0,0,Swaziland,SWZ,Swaziland,SWZ,Hhohho,SZ,,-25.9610039877,31.2470014957,4,1,Added missing admin-1 capital. Population from GeoNames.,5750,5750,0,5,5,934881,,,0,0,9,1159115493
10,1,8,Admin-1 capital,Siteki,,,0,Siteki,0,0,,0,0,Swaziland,SWZ,Swaziland,SWZ,Lubombo,SZ,,-26.4549960436,31.9519986213,4,1,Added missing admin-1 capital. Population from GeoNames.,6152,6152,0,5,5,934851,,,0,0,9,1159115523
10,1,8,Admin-1 capital,Manzini,,,0,Manzini,0,0,,0,0,Swaziland,SWZ,Swaziland,SWZ,Manzini,SZ,,-26.4950010563,31.3880044953,4,1,Added missing admin-1 capital. Population from GeoNames.,110537,110537,0,9,9,934995,,,0,0,9,1159115543
10,1,8,Admin-1 capital,Hlatikulu,,,0,Hlatikulu,0,0,,0,0,Swaziland,SWZ,Swaziland,SWZ,Shiselweni,SZ,,-26.9999999269,31.4166965486,4,1,Added missing admin-1 capital. Population from GeoNames.,2748,2748,0,4,4,935081,,,0,0,7,1159115561
10,1,8,Admin-1 capital,Somoto,,,0,Somoto,0,0,,0,0,Nicaragua,NIC,Nicaragua,NIC,Madriz,NI,,13.4759971182,-86.5829965925,4,1,Added missing admin-1 capital. Population from GeoNames.,20316,20316,0,7,7,3616232,,,0,0,9,1159115583
10,1,8,Admin-1 capital,Ocotal,,,0,Ocotal,0,0,,0,0,Nicaragua,NIC,Nicaragua,NIC,Nueva Segovia,NI,,13.6299960459,-86.4729986113,4,1,Added missing admin-1 capital. Population from GeoNames.,33928,33928,0,7,7,3617448,,,0,0,9,1159115603
10,1,6,Admin-1 capital,Aveiro,,,0,Aveiro,0,0,,0,0,Portugal,PRT,Portugal,PRT,Aveiro,PT,,40.6410031052,-8.65099753409,4,1,Added missing admin-1 capital. Population from GeoNames.,54162,54162,0,8,8,2742611,,,0,0,7,1159115621
10,1,6,Admin-1 capital,Leiria,,,0,Leiria,0,0,,0,0,Portugal,PRT,Portugal,PRT,Leiria,PT,,39.7389960285,-8.80499646187,4,1,Added missing admin-1 capital. Population from GeoNames.,45112,45112,0,7,7,2267095,,,0,0,7,1159115639
10,1,6,Admin-1 capital,Viana Do Castelo,,,0,Viana Do Castelo,0,0,,0,0,Portugal,PRT,Portugal,PRT,Viana do Castelo,PT,,41.6962351427,-8.84413748436,4,1,Added missing admin-1 capital. Population from GeoNames.,15555,15555,0,6,6,2732773,,,0,0,8,1159115665
10,1,3,Admin-1 capital,Mérida,,,0,Merida,0,0,,0,0,Kingdom of Spain,ESP,Spain,ESP,Extremadura,ES,,38.9120040184,-6.33799751231,4,1,Added missing admin-1 capital. Population from GeoNames.,52423,52423,0,8,8,2513917,,,0,0,7,1159115685
10,1,6,Admin-1 capital,Beja,,,0,Beja,0,0,,0,0,Portugal,PRT,Portugal,PRT,Beja,PT,,38.0140021427,-7.86300241019,4,1,Added missing admin-1 capital. Population from GeoNames.,35854,21658,0,7,7,2270985,,,0,0,7,1159115703
10,1,6,Admin-1 capital,Évora,,,0,Evora,0,0,,0,0,Portugal,PRT,Portugal,PRT,Évora,PT,,38.5599961147,-7.9059955613,4,1,Added missing admin-1 capital. Population from GeoNames.,55620,55620,0,8,8,2268406,,,0,0,6.1,1159115725
10,1,6,Admin-1 capital,Portalegre,,,0,Portalegre,0,0,,0,0,Portugal,PRT,Portugal,PRT,Portalegre,PT,,39.2900041095,-7.42300154937,4,1,Added missing admin-1 capital. Population from GeoNames.,15581,15581,0,6,6,2264508,,,0,0,8,1159115745
10,1,6,Admin-1 capital,Santarém,,,1,Santarem,0,0,,0,0,Portugal,PRT,Portugal,PRT,Santarém,PT,,39.2310000834,-8.68200255248,4,1,Added missing admin-1 capital. Population from GeoNames.,29385,29385,0,7,7,2263480,,,0,0,6.1,1159115765
10,1,6,Admin-1 capital,Bragança,,,0,Braganca,0,0,,0,0,Portugal,PRT,Portugal,PRT,Bragança,PT,,41.8079970142,-6.75500342578,4,1,Added missing admin-1 capital. Population from GeoNames.,34375,34375,0,7,7,2742027,,,0,0,7,1159115789
10,1,6,Admin-1 capital,Castelo Branco,,,0,Castelo Branco,0,0,,0,0,Portugal,PRT,Portugal,PRT,Castelo Branco,PT,,39.8109961483,-7.4879995591,4,1,Added missing admin-1 capital. Population from GeoNames.,33479,33479,0,7,7,2269514,,,0,0,7,1159115809
10,1,6,Admin-1 capital,Guarda,,,0,Guarda,0,0,,0,0,Portugal,PRT,Portugal,PRT,Guarda,PT,,40.5410041432,-7.26200051152,4,1,Added missing admin-1 capital. Population from GeoNames.,32111,32111,0,7,7,2738785,,,0,0,7,1159115829
10,1,6,Admin-1 capital,Viseu,,,0,Viseu,0,0,,0,0,Portugal,PRT,Portugal,PRT,Viseu,PT,,40.656996108,-7.91000043134,4,1,Added missing admin-1 capital. Population from GeoNames.,26364,26364,0,7,7,2732265,,,0,0,7,1159115849
10,1,6,Admin-1 capital,Vila Real,,,0,Vila Real,0,0,,0,0,Portugal,PRT,Portugal,PRT,Vila Real,PT,,41.2939981493,-7.73700249014,4,1,Added missing admin-1 capital. Population from GeoNames.,17001,17001,0,6,6,2732438,,,0,0,7.7,1159115855
10,1,8,Admin-1 capital,Fatick,,,0,Fatick,0,0,,0,0,Senegal,SEN,Senegal,SEN,Fatick,SN,,14.3440021019,-16.4159995209,4,1,Added missing admin-1 capital. Population from GeoNames.,24243,24243,0,7,7,2251911,,,0,0,7,1159115869
10,1,5,Admin-1 capital,An Nabk,Qurayyat,,0,An Nabk,0,0,,0,0,Saudi Arabia,SAU,Saudi Arabia,SAU,Al Jawf,SA,,31.3333020458,37.3332965345,4,1,Added missing admin-1 capital.,10000,5000,0,5,4,-1,,,0,0,7,1159115897
10,1,8,Admin-1 capital,Assen,,,0,Assen,0,0,,0,0,Kingdom of the Netherlands,NLD,Netherlands,NLD,Drenthe,NL,,53.0000010924,6.55000258464,4,1,Added missing admin-1 capital. Population from GeoNames.,62237,62237,0,8,8,2759633,,,0,0,8,1159115923
10,1,8,Admin-1 capital,Arnhem,,,0,Arnhem,0,0,,0,0,Kingdom of the Netherlands,NLD,Netherlands,NLD,Gelderland,NL,,51.9879960345,5.92299956246,4,1,Added missing admin-1 capital. Population from GeoNames.,141674,141674,0,9,9,2759661,,,0,0,7,1159115945
10,1,8,Admin-1 capital,Maastricht,,,0,Maastricht,0,0,,0,0,Kingdom of the Netherlands,NLD,Netherlands,NLD,Limburg,NL,,50.8529970672,5.67700247661,4,1,Added missing admin-1 capital. Population from GeoNames.,122378,122378,0,9,9,2751283,,,0,0,9,1159115953
10,1,8,Admin-1 capital,Zwolle,,,0,Zwolle,0,0,,0,0,Kingdom of the Netherlands,NLD,Netherlands,NLD,Overijssel,NL,,52.5240000889,6.09699652852,4,1,Added missing admin-1 capital. Population from GeoNames.,111805,111805,0,9,9,2743477,,,0,0,7,1159115983
10,1,8,Admin-1 capital,Middelburg,,,0,Middelburg,0,0,,0,0,Kingdom of the Netherlands,NLD,Netherlands,NLD,Zeeland,NL,,51.5019961773,3.60999954067,4,1,Added missing admin-1 capital. Population from GeoNames.,46485,46485,0,7,7,2750896,,,0,0,7,1159116007
10,1,8,Admin-1 capital,'s-Hertogenbosch,,,0,'s-Hertogenbosch,0,0,,0,0,Kingdom of the Netherlands,NLD,Netherlands,NLD,Noord-Brabant,NL,,51.6833371427,5.31666048481,4,1,Added missing admin-1 capital. Population from GeoNames.,134520,134520,0,9,9,2747351,,,0,0,9,1159116023
10,1,7,Admin-1 capital,Arendal,,,0,Arendal,0,0,,0,0,Kingdom of Norway,NOR,Norway,NOR,Aust-Agder,NO,,58.4647560555,8.76600055346,4,1,Added missing admin-1 capital. Population from GeoNames.,30916,30916,0,7,7,3162955,,,0,0,7,1159116047
10,1,7,Admin-1 capital,Vossavangen,,,0,Vossavangen,0,0,,0,0,Kingdom of Norway,NOR,Norway,NOR,Hordaland,NO,,60.6300031648,6.44100346283,4,1,Added missing admin-1 capital. Population from GeoNames.,5571,5571,0,5,5,3131329,,,0,0,6.1,1159116055
10,1,7,Admin-1 capital,Leikanger,Systrond,Hermansverk,0,Leikanger,0,0,,0,0,Kingdom of Norway,NOR,Norway,NOR,Sogn og Fjordane,NO,,61.1832961245,6.84999947075,4,1,Added missing admin-1 capital. Population from GeoNames.,1965,1965,0,3,3,3152884,,,0,0,7,1159116077
10,1,7,Admin-1 capital,Bærum,,,1,Baerum,0,0,,0,0,Kingdom of Norway,NOR,Norway,NOR,Akershus,NO,,59.9134860597,11.3472365136,40,1,Added missing admin-1 capital.,113659,113659,0,9,9,3162212,,,0,0,7,1159116103
10,1,7,Admin-1 capital,Hamar,,,0,Hamar,0,0,,0,0,Kingdom of Norway,NOR,Norway,NOR,Hedmark,NO,,60.8200020697,11.0690015561,4,1,Added missing admin-1 capital. Population from GeoNames.,29479,29479,0,7,7,3154084,,,0,0,6.1,1159116127
10,1,7,Admin-1 capital,Tønsberg,,,1,Tonsberg,0,0,,0,0,Kingdom of Norway,NOR,Norway,NOR,Vestfold,NO,,59.2640010895,10.4210014708,4,1,Added missing admin-1 capital. Population from GeoNames.,38914,38914,0,7,7,3134331,,,0,0,7,1159116137
10,1,6,Admin-1 capital,Baglung,,,0,Baglung,0,0,,0,0,Nepal,NPL,Nepal,NPL,Dhawalagiri,NP,,28.2666960593,83.5832976202,4,1,Added missing admin-1 capital. Population from GeoNames.,23296,23296,0,7,7,1283711,,,0,0,9,1159116171
10,1,6,Admin-1 capital,Jumla,,,0,Jumla,0,0,,0,0,Nepal,NPL,Nepal,NPL,Karnali,NP,,29.2500001278,82.2167016241,4,1,Added missing admin-1 capital. Population from GeoNames.,9073,9073,0,5,5,1283285,,,0,0,7,1159116187
10,1,6,Admin-1 capital,Bhairawa,,,0,Bhairawa,0,0,,0,0,Nepal,NPL,Nepal,NPL,Lumbini,NP,,27.5333040891,83.3832995306,4,1,Added missing admin-1 capital. Population from GeoNames.,63367,63367,0,8,8,1283621,,,0,0,7,1159116209
10,1,6,Admin-1 capital,Dandeldhura,,,0,Dandeldhura,0,0,,0,0,Nepal,NPL,Nepal,NPL,Mahakali,NP,,29.3000041597,80.6000045474,4,1,Added missing admin-1 capital. Population from GeoNames.,19014,19014,0,6,6,1283499,,,0,0,9,1159116225
10,1,6,Admin-1 capital,Dhangarhi,,,0,Dhangarhi,0,0,,0,0,Nepal,NPL,Nepal,NPL,Achham,NP,,28.69499706,80.5930026028,4,1,Added missing admin-1 capital. Population from GeoNames.,92294,92294,0,8,8,1283467,,,0,0,7,1159116251
10,1,6,Admin-1 capital,Ramechhap,,,0,Ramechhap,0,0,,0,0,Nepal,NPL,Nepal,NPL,Janakpur,NP,,27.3259980757,86.0869985286,4,1,Added missing admin-1 capital.,15000,15000,0,6,6,1282878,,,0,0,9,1159116277
10,1,6,Admin-1 capital,Bhimphedi,,,0,Bhimphedi,0,0,,0,0,Nepal,NPL,Nepal,NPL,Narayani,NP,,27.5509980984,85.1300015629,4,1,Added missing admin-1 capital.,15000,15000,0,6,6,-1,,,0,0,9,1159116295
10,1,6,Admin-1 capital,Rajbiraj,,,0,Rajbiraj,0,0,,0,0,Nepal,NPL,Nepal,NPL,Sagarmatha,NP,,26.5332961001,86.7332976074,4,1,Added missing admin-1 capital. Population from GeoNames.,33061,33061,0,7,7,1282884,,,0,0,7,1159116313
10,1,6,Admin-1 capital,Ilam,,,0,Ilam,0,0,,0,0,Nepal,NPL,Nepal,NPL,Mechi,NP,,26.9080020735,87.9260045327,4,1,Added missing admin-1 capital. Population from GeoNames.,17491,17491,0,6,6,1283333,,,0,0,7,1159116339
10,1,8,Admin-1 capital,Wabag,,,0,Wabag,0,0,,0,0,Papua New Guinea,PNG,Papua New Guinea,PNG,Enga,PG,,-5.49000000496,143.718003738,4,1,Added missing admin-1 capital. Population from GeoNames.,3958,3958,0,4,4,2084246,,,0,0,7,1159116355
10,1,8,Admin-1 capital,Vanimo,,,0,Vanimo,0,0,,0,0,Papua New Guinea,PNG,Papua New Guinea,PNG,Sandaun,PG,,-2.69000093572,141.303996628,4,1,Added missing admin-1 capital. Population from GeoNames.,11204,11204,0,6,6,2084442,,,0,0,7,1159116375
10,1,8,Admin-1 capital,Kundiawa,,,0,Kundiawa,0,0,,0,0,Papua New Guinea,PNG,Papua New Guinea,PNG,Chimbu,PG,,-6.02299788324,144.960012714,4,1,Added missing admin-1 capital. Population from GeoNames.,9383,9383,0,5,5,2093059,,,0,0,9,1159116387
10,1,8,Admin-1 capital,Kerema,,,0,Kerema,0,0,,0,0,Papua New Guinea,PNG,Papua New Guinea,PNG,Gulf,PG,,-7.92700189711,145.837998679,4,1,Added missing admin-1 capital. Population from GeoNames.,5646,5646,0,5,5,2094144,,,0,0,7,1159116407
10,1,8,Admin-1 capital,Arawa,,,0,Arawa,0,0,,0,0,Papua New Guinea,PNG,Papua New Guinea,PNG,North Solomons,PG,,-6.22800003317,155.565990668,4,1,Added missing admin-1 capital. Population from GeoNames.,40266,40266,0,7,7,2100633,,,0,0,9,1159116427
10,1,8,Admin-1 capital,Lorengau,,,0,Lorengau,0,0,,0,0,Papua New Guinea,PNG,Papua New Guinea,PNG,Manus,PG,,-2.03200199676,147.279996642,4,1,Added missing admin-1 capital. Population from GeoNames.,5806,5806,0,5,5,2092164,,,0,0,7,1159116447
10,1,8,Admin-1 capital,Kimbe,,,0,Kimbe,0,0,,0,0,Papua New Guinea,PNG,Papua New Guinea,PNG,West New Britain,PG,,-5.55000289044,150.143013709,4,1,Added missing admin-1 capital. Population from GeoNames.,18847,18847,0,6,6,2093967,,,0,0,7,1159116467
10,1,8,Admin-1 capital,Dubăsari,,,0,Dubasari,0,0,,0,0,Moldova,MDA,Moldova,MDA,Transnistria,MD,,47.2630556,29.1608333,4,0,Added missing admin-1 capital round B. Population from GeoNames.,23254,23254,0,7,7,618365,,,0,0,8,1159116487
10,1,3,Admin-1 capital,Qacha's Nek,,,0,Qacha's Nek,0,0,,0,0,South Africa,ZAF,South Africa,ZAF,Eastern Cape,ZA,,-30.1172669153,28.7019995066,4,1,Added missing admin-1 capital. Population from GeoNames.,25573,25573,0,7,7,932218,,,0,0,7,1159116505
10,1,8,Admin-1 capital,Hudur,,Xuddur,0,Hudur,0,0,,0,0,Somalia,SOM,Somalia,SOM,Bakool,SO,,4.18329897276,43.866702605,4,1,Added missing admin-1 capital.,1639,1639,0,3,3,-1,,,0,0,7,1159116519
10,1,8,Admin-1 capital,Garbahaarey,,,0,Garbahaarey,0,0,,0,0,Somalia,SOM,Somalia,SOM,Gedo,SO,,3.32700311625,42.2270016449,4,1,Added missing admin-1 capital. Population from GeoNames.,12652,12652,0,6,6,58994,,,0,0,7,1159116537
10,1,8,Admin-1 capital,Bu'aale,,,0,Bu'aale,0,0,,0,0,Somalia,SOM,Somalia,SOM,Jubbada Dhexe,SO,,1.0833030174,42.5833025257,4,1,Added missing admin-1 capital.,1490,1490,0,3,3,63949,,,0,0,7,1159116563
10,1,8,Admin-1 capital,Dhuusa Mareeb,,,0,Dhuusa Mareeb,0,0,,0,0,Somalia,SOM,Somalia,SOM,Galguduud,SO,,5.7419999843,46.5080044999,4,1,Added missing admin-1 capital.,447,447,0,2,2,60928,,,0,0,7,1159116581
10,1,6,Admin-1 capital,Trincomalee,,,0,Trincomalee,0,0,,0,0,Sri Lanka,LKA,Sri Lanka,LKA,Trincomalee,LK,,8.56899903641,81.2330015532,4,1,Added missing admin-1 capital. Population from GeoNames.,108420,108420,0,9,9,1226260,,,0,0,7,1159116601
10,1,6,Admin-1 capital,Puttalan,,,0,Puttalan,0,0,,0,0,Sri Lanka,LKA,Sri Lanka,LKA,Puttalam,LK,,8.03300408359,79.8260045421,4,1,Added missing admin-1 capital. Population from GeoNames.,45661,45661,0,7,7,1229293,,,0,0,7,1159116619
10,1,6,Admin-1 capital,Ratnapura,,,0,Ratnapura,0,0,,0,0,Sri Lanka,LKA,Sri Lanka,LKA,Ratnapura,LK,,6.69300313187,80.3860025687,4,1,Added missing admin-1 capital. Population from GeoNames.,47832,47832,0,7,7,1228730,,,0,0,9,1159116631
10,1,2,Admin-1 capital,Umuahia,,,0,Umuahia,0,0,,0,0,Nigeria,NGA,Nigeria,NGA,Abia,NG,,5.53200304108,7.48600248721,4,1,Added missing admin-1 capital. Population from GeoNames.,264662,264662,0,10,10,2320576,,,0,0,7,1159116649
10,1,2,Admin-1 capital,Uyo,,,0,Uyo,0,0,,0,0,Nigeria,NGA,Nigeria,NGA,Akwa Ibom,NG,,5.0079960555,7.84999852368,4,1,Added missing admin-1 capital. Population from GeoNames.,554906,436606,0,11,10,2319480,,,0,0,9,1159116677
10,1,2,Admin-1 capital,Owerri,,,0,Owerri,0,0,,0,0,Nigeria,NGA,Nigeria,NGA,Imo,NG,,5.49299705326,7.0260035881,4,1,Added missing admin-1 capital. Population from GeoNames.,215038,215038,0,10,10,2325330,,,0,0,7,1159116695
10,1,6,Admin-1 capital,Sariwon,,,0,Sariwon,0,0,,0,0,"Korea, North",PRK,North Korea,PRK,Hwanghae-bukto,KP,,38.5070041099,125.762004687,4,1,Added missing admin-1 capital. Population from GeoNames.,154942,154942,0,9,9,1870883,,,0,0,7,1159116707
10,1,6,Admin-1 capital,Sin-Ni,,,0,Sin-Ni,0,0,,0,0,"Korea, North",PRK,North Korea,PRK,P'yongan-namdo,KP,,39.4880041494,125.463996583,4,1,Added missing admin-1 capital. Population from GeoNames.,19463,19463,0,6,6,1870413,,,0,0,7,1159116729
10,1,7,Admin-1 capital,Suchboatar,,,0,Suchboatar,0,0,,0,0,Mongolia,MNG,Mongolia,MNG,Selenge,MN,,50.2499971188,106.200000624,4,1,Added missing admin-1 capital. Population from GeoNames.,24235,24235,0,7,7,2029156,,,0,0,9,1159116749
10,1,7,Admin-1 capital,Dzuunmod,,,0,Dzuunmod,0,0,,0,0,Mongolia,MNG,Mongolia,MNG,Töv,MN,,47.7109980494,106.947000646,4,1,Added missing admin-1 capital. Population from GeoNames.,17738,17738,0,6,6,2031517,,,0,0,9,1159116769
10,1,6,Admin-1 capital,Omaruru,,,0,Omaruru,0,0,,0,0,Namibia,NAM,Namibia,NAM,Erongo,NA,,-21.436001931,15.9509975392,4,1,Added missing admin-1 capital. Population from GeoNames.,11547,11547,0,6,6,3354540,,,0,0,7,1159116779
10,1,6,Admin-1 capital,Karibib,,,0,Karibib,0,0,,0,0,Namibia,NAM,Namibia,NAM,Erongo,NA,,-21.9390029173,15.8529964614,4,1,Added missing admin-1 capital. Population from GeoNames.,6898,6898,0,5,5,3356332,,,0,0,7,1159116805
10,1,6,Admin-1 capital,Otavi,,,0,Otavi,0,0,,0,0,Namibia,NAM,Namibia,NAM,Otjozondjupa,NA,,-19.6399980141,17.3420015476,4,1,Added missing admin-1 capital. Population from GeoNames.,4562,4562,0,4,4,3353934,,,0,0,7,1159116825
10,1,6,Admin-1 capital,Gobabis,,,0,Gobabis,0,0,,0,0,Namibia,NAM,Namibia,NAM,Omaheke,NA,,-22.4549999974,18.9630005375,4,1,Added missing admin-1 capital. Population from GeoNames.,16321,16321,0,6,6,3357247,,,0,0,7,1159116843
10,1,5,Admin-1 capital,Wete,,,0,Wete,0,0,,0,0,United Republic of Tanzania,TZA,Tanzania,TZA,Kaskazini-Pemba,TZ,,-5.06346395918,39.7257990016,4,1,Added missing admin-1 capital. Population from GeoNames.,26450,26450,0,7,7,148842,,,0,0,9,1159116863
10,1,5,Admin-1 capital,Kibaha,,,0,Kibaha,0,0,,0,0,United Republic of Tanzania,TZA,Tanzania,TZA,Pwani,TZ,,-6.76670395349,38.9167026015,4,1,Added missing admin-1 capital. Population from GeoNames.,23651,23651,0,7,7,158027,,,0,0,7,1159116883
10,1,5,Admin-1 capital,Mkokotoni,,,0,Mkokotoni,0,0,,0,0,United Republic of Tanzania,TZA,Tanzania,TZA,Kaskazini-Unguja,TZ,,-5.8789979746,39.259998618,4,1,Added missing admin-1 capital. Population from GeoNames.,2572,2572,0,4,4,153585,,,0,0,9,1159116901
10,1,7,Admin-1 capital,Fribourg,,,0,Fribourg,0,0,,0,0,Switzerland,CHE,Switzerland,CHE,Fribourg,CH,,46.80000008,7.14999652234,4,1,Added missing admin-1 capital. Population from GeoNames.,32827,32827,0,7,7,2660718,,,0,0,9,1159116915
10,1,7,Admin-1 capital,Liestal,,,0,Liestal,0,0,,0,0,Switzerland,CHE,Switzerland,CHE,Basel-Landschaft,CH,,47.4830011176,7.73700346795,4,1,Added missing admin-1 capital. Population from GeoNames.,12832,12832,0,6,6,2659891,,,0,0,9,1159116933
10,1,7,Admin-1 capital,Solothurn,,,0,Solothurn,0,0,,0,0,Switzerland,CHE,Switzerland,CHE,Solothurn,CH,,47.2120020986,7.53699660776,4,1,Added missing admin-1 capital. Population from GeoNames.,14853,14853,0,6,6,2658564,,,0,0,8,1159116949
10,1,7,Admin-1 capital,Sarnen,,,0,Sarnen,0,0,,0,0,Switzerland,CHE,Switzerland,CHE,Obwalden,CH,,46.8990000172,8.24300152884,4,1,Added missing admin-1 capital. Population from GeoNames.,9410,9410,0,5,5,2658786,,,0,0,9,1159116963
10,1,7,Admin-1 capital,Mariestad,,,0,Mariestad,0,0,,0,0,Sweden,SWE,Sweden,SWE,Västra Götaland,SE,,58.7050020878,13.8279965878,4,1,Added missing admin-1 capital. Population from GeoNames.,14891,14891,0,6,6,2692613,,,0,0,7,1159116987
10,1,7,Admin-1 capital,Vannersborg,,,0,Vannersborg,0,0,,0,0,Sweden,SWE,Sweden,SWE,Västra Götaland,SE,,58.3630021393,12.3300006089,4,1,Added missing admin-1 capital. Population from GeoNames.,21835,21835,0,7,7,2665171,,,0,0,7,1159117009
10,1,7,Admin-1 capital,Appenzell,,,0,Appenzell,0,0,,0,0,Switzerland,CHE,Switzerland,CHE,Appenzell Innerrhoden,CH,,47.3333041031,9.41670050466,4,1,Added missing admin-1 capital. Population from GeoNames.,5649,5649,0,5,5,2661740,,,0,0,8,1159117027
10,1,8,Admin-1 capital,Ros Comain,,,0,Ros Comain,0,0,,0,0,Ireland,IRL,Ireland,IRL,Roscommon,IE,,53.6333333,-8.1833333,4,0,Added missing admin-1 capital round B. Population from GeoNames.,4860,4860,0,4,4,2961732,,,0,0,7,1159117035
10,1,8,Admin-1 capital,Cacheu,,,0,Cacheu,0,0,,0,0,Guinea Bissau,GNB,Guinea Bissau,GNB,Cacheu,GW,,12.2689980311,-16.1649985401,4,1,Added missing admin-1 capital. Population from GeoNames.,10490,10490,0,6,6,2374311,,,0,0,7,1159117063
10,1,8,Admin-1 capital,Farim,,,0,Farim,0,0,,0,0,Guinea Bissau,GNB,Guinea Bissau,GNB,Oio,GW,,12.492999029,-15.2270004224,4,1,Added missing admin-1 capital. Population from GeoNames.,6792,6792,0,5,5,2372647,,,0,0,7,1159117087
10,1,8,Admin-1 capital,Fulacunda,,,0,Fulacunda,0,0,,0,0,Guinea Bissau,GNB,Guinea Bissau,GNB,Quinara,GW,,11.7729989893,-15.1949965446,4,1,Added missing admin-1 capital.,1311,1311,0,3,3,-1,,,0,0,9,1159117095
10,1,8,Admin-1 capital,Gabú,,,0,Gabu,0,0,,0,0,Guinea Bissau,GNB,Guinea Bissau,GNB,Gabú,GW,,12.2799960751,-14.2340034795,4,1,Added missing admin-1 capital. Population from GeoNames.,14430,14430,0,6,6,2372532,,,0,0,9,1159117115
10,1,8,Admin-1 capital,Catió,,,0,Catio,0,0,,0,0,Guinea Bissau,GNB,Guinea Bissau,GNB,Tombali,GW,,11.2167000189,-15.1667004937,4,1,Added missing admin-1 capital. Population from GeoNames.,9898,9898,0,5,5,2373526,,,0,0,7,1159117133
10,1,8,Admin-1 capital,Barclayville,,,0,Barclayville,0,0,,0,0,Liberia,LBR,Liberia,LBR,GrandKru,LR,,4.7999969965,-8.16669851802,4,1,Added missing admin-1 capital. Population from GeoNames.,2733,2733,0,4,4,2278889,,,0,0,7,1159117145
10,1,8,Admin-1 capital,Voinjama,,,0,Voinjama,0,0,,0,0,Liberia,LBR,Liberia,LBR,Lofa,LR,,8.41670111517,-9.74999652422,4,1,Added missing admin-1 capital. Population from GeoNames.,26594,26594,0,7,7,2273312,,,0,0,9,1159117163
10,1,8,Admin-1 capital,Bensonville,Bentol,,0,Bensonville,0,0,,0,0,Liberia,LBR,Liberia,LBR,Montserrado,LR,,6.43329903452,-10.6000015194,4,1,Added missing admin-1 capital.,4089,4089,0,4,4,2278682,,,0,0,9,1159117193
10,1,8,Admin-1 capital,Kakata,,,0,Kakata,0,0,,0,0,Liberia,LBR,Liberia,LBR,Margibi,LR,,6.5259990088,-10.3490005387,4,1,Added missing admin-1 capital. Population from GeoNames.,33945,33945,0,7,7,2276086,,,0,0,9,1159117211
10,1,8,Admin-1 capital,Sanniquellie,,,0,Sanniquellie,0,0,,0,0,Liberia,LBR,Liberia,LBR,Nimba,LR,,7.37100010911,-8.68499946155,4,1,Added missing admin-1 capital. Population from GeoNames.,11415,11415,0,6,6,2274129,,,0,0,9,1159117233
10,1,8,Admin-1 capital,Rivercess,,,0,Rivercess,0,0,,0,0,Liberia,LBR,Liberia,LBR,River Cess,LR,,5.46499804554,-9.57799744238,4,1,Added missing admin-1 capital. Population from GeoNames.,2578,2578,0,4,4,2274288,,,0,0,7,1159117251
10,1,3,Admin-1 region capital,Potenza,,,0,Potenza,0,0,,0,0,Italy,ITA,Italy,ITA,Basilicata,IT,,40.6420021301,15.7989964956,4,1,Added missing admin-1 capital. Population from GeoNames.,69060,69060,0,8,8,3170027,,,0,0,7,1159117259
10,1,3,Admin-1 region capital,Campobasso,,,0,Campobasso,0,0,,0,0,Italy,ITA,Italy,ITA,Molise,IT,,41.5629991186,14.6559965589,4,1,Added missing admin-1 capital. Population from GeoNames.,50762,50762,0,8,8,3180991,,,0,0,7,1159117283
10,1,8,Admin-1 capital,Al Mafraq,,,0,Al Mafraq,0,0,,0,0,Jordan,JOR,Jordan,JOR,Mafraq,JO,,32.2832970669,36.2332985195,4,1,Added missing admin-1 capital. Population from GeoNames.,57118,57118,0,8,8,250582,,,0,0,9,1159117307
10,1,8,Admin-1 capital,At Tafilah,,,0,At Tafilah,0,0,,0,0,Jordan,JOR,Jordan,JOR,Tafilah,JO,,30.833334044,35.600004636,4,1,Added missing admin-1 capital. Population from GeoNames.,25429,25429,0,7,7,250198,,,0,0,8,1159117321
10,1,8,Admin-1 capital,Ma'an,,,0,Ma'an,0,0,,0,0,Jordan,JOR,Jordan,JOR,Ma`an,JO,,30.1920031156,35.7360035752,4,1,Added missing admin-1 capital.,50350,50350,0,8,8,-1,,,0,0,7,1159117345
10,1,3,Admin-1 region capital,Aosta,,,0,Aosta,0,0,,0,0,Italy,ITA,Italy,ITA,Valle d'Aosta,IT,,45.7370010671,7.31500259571,4,1,Added missing admin-1 capital. Population from GeoNames. Changed feature class.,34062,34062,0,7,7,3182997,,,0,0,7,1159117361
10,1,8,Admin-1 capital,Diekirch,,,0,Diekirch,0,0,,0,0,Luxembourg,LUX,Luxembourg,LUX,Diekirch,LU,,49.8833010509,6.16670155545,4,1,Added missing admin-1 capital. Population from GeoNames.,6242,6242,0,5,5,2960657,,,0,0,7,1159117375
10,1,8,Admin-1 capital,Grevenmacher,,,0,Grevenmacher,0,0,,0,0,Luxembourg,LUX,Luxembourg,LUX,Grevenmacher,LU,,49.6999981113,6.33330057452,4,1,Added missing admin-1 capital. Population from GeoNames.,3958,3958,0,4,4,2960515,,,0,0,7,1159117399
10,1,6,Admin-1 capital,Kangar,,,0,Kangar,0,0,,0,0,Malaysia,MYS,Malaysia,MYS,Perlis,MY,,6.43300199135,100.189998682,4,1,Added missing admin-1 capital. Population from GeoNames.,63869,63869,0,8,8,1736278,,,0,0,9,1159117415
10,1,6,Admin-1 capital,Kuala Lipis,,,0,Kuala Lipis,0,0,,0,0,Malaysia,MYS,Malaysia,MYS,Pahang,MY,,4.18400111992,102.042000614,4,1,Added missing admin-1 capital. Population from GeoNames.,15448,15448,0,6,6,1733023,,,0,0,9,1159117441
10,1,6,Admin-1 capital,Shah Alam,,,0,Shah Alam,0,0,,0,0,Malaysia,MYS,Malaysia,MYS,Selangor,MY,,3.06669599645,101.549997672,4,1,Added missing admin-1 capital. Population from GeoNames.,481654,481654,0,10,10,1732903,,,0,0,9,1159117459
10,1,5,Admin-1 capital,Nyeri,,,0,Nyeri,0,0,,0,0,Kenya,KEN,Kenya,KEN,Central,KE,,-0.41699699049,36.9510036318,4,1,Added missing admin-1 capital. Population from GeoNames.,51084,51084,0,8,8,182701,,,0,0,9,1159117473
10,1,8,Admin-1 capital,Teyateyaneng,,,0,Teyateyaneng,0,0,,0,0,Lesotho,LSO,Lesotho,LSO,Berea,LS,,-29.1529979356,27.7530035103,4,1,Added missing admin-1 capital. Population from GeoNames.,5115,5115,0,5,5,932035,,,0,0,9,1159117491
10,1,8,Admin-1 capital,Mohales Hoek,,,0,Mohales Hoek,0,0,,0,0,Lesotho,LSO,Lesotho,LSO,Mohale's Hoek,LS,,-30.1589999083,27.4799975055,4,1,Added missing admin-1 capital. Population from GeoNames.,24992,24992,0,7,7,932438,,,0,0,9,1159117509
10,1,8,Admin-1 capital,Moyeni,,,0,Moyeni,0,0,,0,0,Lesotho,LSO,Lesotho,LSO,Quthing,LS,,-30.4109999139,27.7160045083,4,1,Added missing admin-1 capital. Population from GeoNames.,24130,24130,0,7,7,932183,,,0,0,7,1159117539
10,1,8,Admin-1 capital,Hlotse,,,0,Hlotse,0,0,,0,0,Lesotho,LSO,Lesotho,LSO,Leribe,LS,,-28.8780029827,28.0559976365,4,1,Added missing admin-1 capital. Population from GeoNames.,47675,47675,0,7,7,932698,,,0,0,9,1159117545
10,1,8,Admin-1 capital,Butha-Buthe,,,0,Butha-Buthe,0,0,,0,0,Lesotho,LSO,Lesotho,LSO,Leribe,LS,,-28.7499959113,28.2500015769,4,1,Added missing admin-1 capital. Population from GeoNames.,16330,16330,0,6,6,932886,,,0,0,9,1159117565
10,1,8,Admin-1 capital,Mokhotlong,,,0,Mokhotlong,0,0,,0,0,Lesotho,LSO,Lesotho,LSO,Mokhotlong,LS,,-29.2910040261,29.078001548,4,1,Added missing admin-1 capital. Population from GeoNames.,8809,8809,0,5,5,932416,,,0,0,7,1159117591
10,1,8,Admin-1 capital,Ahuachapán,,,0,Ahuachapan,0,0,,0,0,El Salvador,SLV,El Salvador,SLV,Ahuachapán,SV,,13.9190039897,-89.8450015467,4,1,Added missing admin-1 capital. Population from GeoNames.,34102,34102,0,7,7,3587426,,,0,0,9,1159117611
10,1,8,Admin-1 capital,Cojutepeque,,,0,Cojutepeque,0,0,,0,0,El Salvador,SLV,El Salvador,SLV,Cuscatlán,SV,,13.7167020366,-88.9333015956,4,1,Added missing admin-1 capital. Population from GeoNames.,48411,48411,0,7,7,3586977,,,0,0,9,1159117629
10,1,8,Admin-1 capital,Nueva San Salvador,,,0,Nueva San Salvador,0,0,,0,0,El Salvador,SLV,El Salvador,SLV,La Libertad,SV,,13.6739969925,-89.2899984788,4,1,Added missing admin-1 capital. Population from GeoNames.,124694,124694,0,9,9,3584257,,,0,0,9,1159117637
10,1,8,Admin-1 capital,Zacatecoluca,,,0,Zacatecoluca,0,0,,0,0,El Salvador,SLV,El Salvador,SLV,La Paz,SV,,13.5080009959,-88.8679976066,4,1,Added missing admin-1 capital. Population from GeoNames.,39613,39613,0,7,7,3582805,,,0,0,9,1159117657
10,1,8,Admin-1 capital,La Unión,,,0,La Union,0,0,,0,0,El Salvador,SLV,El Salvador,SLV,La Unión,SV,,13.331997044,-87.8390005211,4,1,Added missing admin-1 capital. Population from GeoNames.,26807,26807,0,7,7,3584772,,,0,0,9,1159117687
10,1,8,Admin-1 capital,San Francisco Gotera,,,0,San Francisco Gotera,0,0,,0,0,El Salvador,SLV,El Salvador,SLV,Morazán,SV,,13.699998116,-88.100000521,4,1,Added missing admin-1 capital. Population from GeoNames.,16152,16152,0,6,6,3583747,,,0,0,9,1159117693
10,1,8,Admin-1 capital,San Vicente,,,0,San Vicente,0,0,,0,0,El Salvador,SLV,El Salvador,SLV,San Vicente,SV,,13.641003026,-88.7849996083,4,1,Added missing admin-1 capital. Population from GeoNames.,37326,37326,0,7,7,3583178,,,0,0,9,1159117711
10,1,8,Admin-1 capital,Usulután,,,0,Usulutan,0,0,,0,0,El Salvador,SLV,El Salvador,SLV,Usulután,SV,,13.3460010987,-88.4320016158,4,1,Added missing admin-1 capital. Population from GeoNames.,51910,51910,0,8,8,3582883,,,0,0,9,1159117729
10,1,8,Admin-1 capital,Chalatenango,,,0,Chalatenango,0,0,,0,0,El Salvador,SLV,El Salvador,SLV,Chalatenango,SV,,14.0720040581,-89.0939964887,4,1,Added missing admin-1 capital.,29271,29271,0,7,7,3587091,,,0,0,9,1159117743
10,1,8,Admin-1 capital,Lucea,,,0,Lucea,0,0,,0,0,Jamaica,JAM,Jamaica,JAM,Hanover,JM,,18.4429980854,-78.1790036163,4,1,Added missing admin-1 capital. Population from GeoNames.,6289,6289,0,5,5,3489657,,,0,0,9,1159117759
10,1,8,Admin-1 capital,Mandeville,,,0,Mandeville,0,0,,0,0,Jamaica,JAM,Jamaica,JAM,Manchester,JM,,18.0330030526,-77.4999985126,4,1,Added missing admin-1 capital. Population from GeoNames.,47115,47115,0,7,7,3489577,,,0,0,9,1159117775
10,1,8,Admin-1 capital,Black River,,,0,Black River,0,0,,0,0,Jamaica,JAM,Jamaica,JAM,Saint Elizabeth,JM,,18.0309960668,-77.8519974803,4,1,Added missing admin-1 capital. Population from GeoNames.,4229,4229,0,4,4,3491355,,,0,0,9,1159117791
10,1,8,Admin-1 capital,Falmouth,,,0,Falmouth,0,0,,0,0,Jamaica,JAM,Jamaica,JAM,Trelawny,JM,,18.4795830473,-77.6560496033,4,1,Added missing admin-1 capital. Population from GeoNames.,7779,7779,0,5,5,3490520,,,0,0,9,1159117809
10,1,8,Admin-1 capital,Savanna-la-Mar,,"Sav-la-Mar, Sav, Savanna La Mar",0,Savanna-la-Mar,0,0,,0,0,Jamaica,JAM,Jamaica,JAM,Westmoreland,JM,,18.1639980969,-77.9480005084,4,1,Added missing admin-1 capital.,30000,20521,0,7,7,-1,,,0,0,9,1159117825
10,1,8,Admin-1 capital,Port Antonio,,,0,Port Antonio,0,0,,0,0,Jamaica,JAM,Jamaica,JAM,Portland,JM,,18.1590031381,-76.3800026249,4,1,Added missing admin-1 capital. Population from GeoNames.,14400,14400,0,6,6,3489005,,,0,0,9,1159117841
10,1,8,Admin-1 capital,Saint Ann's Bay,,,0,St. Ann's Bay,0,0,,0,0,Jamaica,JAM,Jamaica,JAM,Saint Ann,JM,,18.4326391393,-77.1995245371,4,1,Added missing admin-1 capital.,13671,13671,0,6,6,-1,,,0,0,7,1159117855
10,1,8,Admin-1 capital,Port Maria,,,0,Port Maria,0,0,,0,0,Jamaica,JAM,Jamaica,JAM,Saint Mary,JM,,18.3770010508,-76.8999954733,4,1,Added missing admin-1 capital. Population from GeoNames.,7906,7906,0,5,5,3488985,,,0,0,9,1159117871
10,1,8,Admin-1 capital,Half Way Tree,,Halfway Tree,0,Half Way Tree,0,0,,0,0,Jamaica,JAM,Jamaica,JAM,Saint Andrew,JM,,18.0333000958,-76.7999965113,4,1,Added missing admin-1 capital.,96494,96494,0,8,8,-1,,,0,0,9,1159117887
10,1,8,Admin-1 capital,Port Morant,,,0,Port Morant,0,0,,0,0,Jamaica,JAM,Jamaica,JAM,Saint Thomas,JM,,17.8910010282,-76.3289995682,4,1,Added missing admin-1 capital.,11536,11536,0,6,6,3488982,,,0,0,9,1159117905
10,1,8,Admin-1 capital,Sabaneta,,,0,Sabaneta,0,0,,0,0,Dominican Republic,DOM,Dominican Republic,DOM,Santiago Rodríguez,DO,,19.5049980735,-71.3449885357,4,1,Added missing admin-1 capital. Population from GeoNames.,16380,16380,0,6,6,3493383,,,0,0,9,1159117927
10,1,8,Admin-1 capital,Mao,,,0,Mao,0,0,,0,0,Dominican Republic,DOM,Dominican Republic,DOM,Valverde,DO,,19.5519960946,-71.0749974776,4,1,Added missing admin-1 capital. Population from GeoNames.,48297,48297,0,7,7,3496831,,,0,0,9,1159117953
10,1,8,Admin-1 capital,Cotuí,,,0,Cotui,0,0,,0,0,Dominican Republic,DOM,Dominican Republic,DOM,Sánchez Ramírez,DO,,19.0590030636,-70.1520026048,4,1,Added missing admin-1 capital. Population from GeoNames.,41641,41641,0,7,7,3509207,,,0,0,9,1159117969
10,1,8,Admin-1 capital,Evinayong,,,0,Evinayong,0,0,,0,0,Equatorial Guinea,GNQ,Equatorial Guinea,GNQ,Centro Sur,GQ,,1.44999908525,10.5667025515,4,1,Added missing admin-1 capital. Population from GeoNames.,8462,8462,0,5,5,2308994,,,0,0,7,1159117991
10,1,8,Admin-1 capital,Luba,,,0,Luba,0,0,,0,0,Equatorial Guinea,GNQ,Equatorial Guinea,GNQ,Bioko Sur,GQ,,3.44999702564,8.55000052502,4,1,Added missing admin-1 capital. Population from GeoNames.,8655,8655,0,5,5,2309528,,,0,0,7,1159118007
10,1,8,Admin-1 capital,Šibenik,,,0,Sibenik,0,0,,0,0,Croatia,HRV,Croatia,HRV,Šibensko-Kninska,HR,,43.7272222,15.9058333,4,0,Added missing admin-1 capital round B. Population from GeoNames.,37112,37112,0,7,7,3190941,,,0,0,7,1159118027
10,1,3,Admin-1 capital,Shibin el Kom,,,0,Shibin el Kom,0,0,,0,0,Egypt,EGY,Egypt,EGY,Al Minufiyah,EG,,30.5919991293,30.8999974869,4,1,Added missing admin-1 capital.,182900,182900,0,9,9,349158,,,0,0,8,1159118087
10,1,3,Admin-1 capital,Benha,,,0,Benha,0,0,,0,0,Egypt,EGY,Egypt,EGY,Al Qalyubiyah,EG,,30.4666651155,31.1833356294,4,1,Added missing admin-1 capital. Population from GeoNames.,167029,167029,0,9,9,359280,,,0,0,8,1159118097
10,1,3,Admin-1 capital,Zagazig,,,0,Zagazig,0,0,,0,0,Egypt,EGY,Egypt,EGY,Ash Sharqiyah,EG,,30.5833320881,31.5166596006,4,1,Added missing admin-1 capital. Population from GeoNames.,285097,285097,0,10,10,359493,,,0,0,8,1159118123
10,1,3,Admin-1 capital,Kafr el Sheikh,,,0,Kafr el Sheikh,0,0,,0,0,Egypt,EGY,Egypt,EGY,Kafr ash Shaykh,EG,,31.1090040048,30.9359976295,4,1,Added missing admin-1 capital. Population from GeoNames.,143970,143970,0,9,9,354502,,,0,0,9,1159118131
10,1,8,Admin-1 capital,Dikhil,,,0,Dikhil,0,0,,0,0,Djibouti,DJI,Djibouti,DJI,Dikhil,DJ,,11.1040020064,42.3720005783,4,1,Added missing admin-1 capital. Population from GeoNames.,12043,12043,0,6,6,223890,,,0,0,9,1159118161
10,1,8,Admin-1 capital,Tadjoura,,,0,Tadjoura,0,0,,0,0,Djibouti,DJI,Djibouti,DJI,Tadjourah,DJ,,11.7833039878,42.9000034979,4,1,Added missing admin-1 capital. Population from GeoNames.,22193,22193,0,7,7,220782,,,0,0,9,1159118179
10,1,8,Admin-1 capital,Haapsalu,,,0,Haapsalu,0,0,,0,0,Estonia,EST,Estonia,EST,Lääne,EE,,58.9430556,23.5413889,4,0,Added missing admin-1 capital round B. Population from GeoNames.,11805,11805,0,6,6,592225,,,0,0,7,1159118197
10,1,8,Admin-1 capital,Hawalli,,,0,Hawalli,0,0,,0,0,Kuwait,KWT,Kuwait,KWT,Hawalli,KW,,29.3333400154,47.9999975591,4,1,Added missing admin-1 capital.,164212,164212,0,9,9,285629,,,0,0,9,1159118215
10,1,3,Admin-1 capital,Buluko,,,0,Buluko,0,0,,0,0,Congo (Kinshasa),COD,Congo (Kinshasa),COD,Nord-Kivu,CD,,-0.75699888928,28.5280025406,4,1,Added missing admin-1 capital.,1192,1192,0,3,3,-1,,,0,0,7,1159118229
10,1,8,Admin-1 capital,Mzimba,,,0,Mzimba,0,0,,0,0,Malawi,MWI,Malawi,MWI,Mzimba,MW,,-11.9,33.6,4,0,Added missing admin-1 capital round B. Population from GeoNames.,19308,19308,0,6,6,925498,,,0,0,9,1159118249
10,1,8,Admin-1 capital,Machinga,,,0,Machinga,0,0,,0,0,Malawi,MWI,Malawi,MWI,Machinga,MW,,-14.9666667,35.5166667,4,0,Added missing admin-1 capital round B. Population from GeoNames.,1418,1418,0,3,3,927643,,,0,0,7,1159118269
10,1,8,Admin-1 capital,Dedza,,,0,Dedza,0,0,,0,0,Malawi,MWI,Malawi,MWI,Dedza,MW,,-14.3666667,34.3333333,4,0,Added missing admin-1 capital round B. Population from GeoNames.,15608,15608,0,6,6,930025,,,0,0,7,1159118287
10,1,8,Admin-1 capital,Mchinji,,,0,Mchinji,0,0,,0,0,Malawi,MWI,Malawi,MWI,Mchinji,MW,,-13.8,32.9,4,0,Added missing admin-1 capital round B. Population from GeoNames.,18305,18305,0,6,6,926747,,,0,0,9,1159118305
10,1,8,Admin-1 capital,Ntcheu,,,0,Ntcheu,0,0,,0,0,Malawi,MWI,Malawi,MWI,Ntcheu,MW,,-14.8166667,34.6333333,4,0,Added missing admin-1 capital round B. Population from GeoNames.,10445,10445,0,6,6,924492,,,0,0,9,1159118323
10,1,8,Admin-1 capital,Chiradzulu,,,0,Chiradzulu,0,0,,0,0,Malawi,MWI,Malawi,MWI,Chiradzulu,MW,,-15.7,35.1833333,4,0,Added missing admin-1 capital round B. Population from GeoNames.,1580,1580,0,3,3,930580,,,0,0,9,1159118337
10,1,8,Admin-1 capital,Nsanje,,,0,Nsanje,0,0,,0,0,Malawi,MWI,Malawi,MWI,Nsanje,MW,,-16.9166667,35.2666667,4,0,Added missing admin-1 capital round B. Population from GeoNames.,21774,21774,0,7,7,924572,,,0,0,9,1159118357
10,1,8,Admin-1 capital,Mwanza,,,0,Mwanza,0,0,,0,0,Malawi,MWI,Malawi,MWI,Mwanza,MW,,-15.6166667,34.5166667,4,0,Added missing admin-1 capital round B. Population from GeoNames.,11379,11379,0,6,6,925596,,,0,0,7,1159118375
10,1,8,Admin-1 capital,Mulanje,,,0,Mulanje,0,0,,0,0,Malawi,MWI,Malawi,MWI,Mulanje,MW,,-16.0333333,35.5,4,0,Added missing admin-1 capital round B. Population from GeoNames.,16483,16483,0,6,6,925789,,,0,0,9,1159118389
10,1,8,Admin-1 capital,Salamá,,,0,Salama,0,0,,0,0,Guatemala,GTM,Guatemala,GTM,Baja Verapaz,GT,,15.1029990278,-90.3140006056,4,1,Added missing admin-1 capital.,40000,40000,0,7,7,3590616,,,0,0,9,1159118411
10,1,8,Admin-1 capital,Retalhuleu,,,0,Retalhuleu,0,0,,0,0,Guatemala,GTM,Guatemala,GTM,Retalhuleu,GT,,14.5370970406,-91.6770145424,4,1,Added missing admin-1 capital. Population from GeoNames.,36656,36656,0,7,7,3590858,,,0,0,9,1159118429
10,1,8,Admin-1 capital,San Marcos,,,0,San Marcos,0,0,,0,0,Guatemala,GTM,Guatemala,GTM,San Marcos,GT,,14.9660010637,-91.7999995156,4,1,Added missing admin-1 capital. Population from GeoNames.,25088,25088,0,7,7,3589805,,,0,0,9,1159118447
10,1,8,Admin-1 capital,Chimaltenango,,,0,Chimaltenango,0,0,,0,0,Guatemala,GTM,Guatemala,GTM,Chimaltenango,GT,,14.6619991421,-90.819998501,4,1,Added missing admin-1 capital. Population from GeoNames.,82370,82370,0,8,8,3598572,,,0,0,9,1159118467
10,1,8,Admin-1 capital,Antigua Guatemala,,,0,Antigua Guatemala,0,0,,0,0,Guatemala,GTM,Guatemala,GTM,Sacatepéquez,GT,,14.5666980957,-90.7333016119,4,1,Added missing admin-1 capital. Population from GeoNames.,39368,39368,0,7,7,3599699,,,0,0,9,1159118485
10,1,8,Admin-1 capital,Sololá,,,0,Solola,0,0,,0,0,Guatemala,GTM,Guatemala,GTM,Sololá,GT,,14.7729959827,-91.1829955126,4,1,Added missing admin-1 capital. Population from GeoNames.,45373,45373,0,7,7,3588698,,,0,0,9,1159118501
10,1,8,Admin-1 capital,Totonicapán,,,0,Totonicapan,0,0,,0,0,Guatemala,GTM,Guatemala,GTM,Totonicapán,GT,,14.9139989822,-91.3580006051,4,1,Added missing admin-1 capital. Population from GeoNames.,69734,69734,0,8,8,3588258,,,0,0,9,1159118521
10,1,8,Admin-1 capital,El Progreso,,,0,El Progreso,0,0,,0,0,Guatemala,GTM,Guatemala,GTM,El Progreso,GT,,14.8499999973,-90.0167035854,4,1,Added missing admin-1 capital.,147197,147197,0,9,9,3596423,,,0,0,9,1159118531
10,1,8,Admin-1 capital,Cuilapa,,,0,Cuilapa,0,0,,0,0,Guatemala,GTM,Guatemala,GTM,Santa Rosa,GT,,14.2790040922,-90.2979985012,4,1,Added missing admin-1 capital. Population from GeoNames.,16484,16484,0,6,6,3597804,,,0,0,9,1159118557
10,1,8,Admin-1 capital,Chiquimula,,,0,Chiquimula,0,0,,0,0,Guatemala,GTM,Guatemala,GTM,Chiquimula,GT,,14.7969990565,-89.5439965341,4,1,Added missing admin-1 capital. Population from GeoNames.,41521,41521,0,7,7,3598465,,,0,0,9,1159118571
10,1,8,Admin-1 capital,Jalapa,,,0,Jalapa,0,0,,0,0,Guatemala,GTM,Guatemala,GTM,Jalapa,GT,,14.6330011095,-89.9890016208,4,1,Added missing admin-1 capital. Population from GeoNames.,45834,45834,0,7,7,3595237,,,0,0,9,1159118593
10,1,8,Admin-1 capital,Zacapa,,,0,Zacapa,0,0,,0,0,Guatemala,GTM,Guatemala,GTM,Zacapa,GT,,14.9720039835,-89.5290025562,4,1,Added missing admin-1 capital. Population from GeoNames.,36088,36088,0,7,7,3587587,,,0,0,9,1159118607
10,1,8,Admin-1 capital,Puerto Plata,,,0,Puerto Plata,0,0,,0,0,Dominican Republic,DOM,Dominican Republic,DOM,Puerto Plata,DO,,19.7902171033,-70.6902474735,4,1,Added missing admin-1 capital. Population from GeoNames.,119897,119897,0,9,9,3493175,,,0,0,7,1159118621
10,1,8,Admin-1 capital,Dajabón,,,0,Dajabon,0,0,,0,0,Dominican Republic,DOM,Dominican Republic,DOM,Dajabón,DO,,19.5479999952,-71.7049975743,4,1,Added missing admin-1 capital. Population from GeoNames.,16398,16398,0,6,6,3508952,,,0,0,9,1159118639
10,1,8,Admin-1 capital,Moca,,,0,Moca,0,0,,0,0,Dominican Republic,DOM,Dominican Republic,DOM,Espaillat,DO,,19.396998142,-70.5230005859,4,1,Added missing admin-1 capital. Population from GeoNames.,61834,61834,0,8,8,3496331,,,0,0,9,1159118655
10,1,8,Admin-1 capital,Salcedo,,,0,Salcedo,0,0,,0,0,Dominican Republic,DOM,Dominican Republic,DOM,Hermanas,DO,,19.3830030235,-70.4167014955,4,1,Added missing admin-1 capital.,45299,45299,0,7,7,3493284,,,0,0,9,1159118673
10,1,8,Admin-1 capital,Jimaní,,,0,Jimani,0,0,,0,0,Dominican Republic,DOM,Dominican Republic,DOM,Independencia,DO,,18.4930021172,-71.8509955327,4,1,Added missing admin-1 capital. Population from GeoNames.,6567,6567,0,5,5,3504077,,,0,0,9,1159118691
10,1,8,Admin-1 capital,Comendador,,,0,Comendador,0,0,,0,0,Dominican Republic,DOM,Dominican Republic,DOM,Elias Pina,DO,,18.8759970016,-71.7069954585,4,1,Added missing admin-1 capital.,43894,27908,0,7,7,3509386,,,0,0,9,1159118711
10,1,8,Admin-1 capital,Pedernales,,,0,Pedernales,0,0,,0,0,Dominican Republic,DOM,Dominican Republic,DOM,Pedernales,DO,,18.0379980114,-71.7409975515,4,1,Added missing admin-1 capital. Population from GeoNames.,11072,11072,0,6,6,3495137,,,0,0,9,1159118729
10,1,8,Admin-1 capital,Azua,,,0,Azua,0,0,,0,0,Dominican Republic,DOM,Dominican Republic,DOM,Azua,DO,,18.4539961294,-70.7290015952,4,1,Added missing admin-1 capital. Population from GeoNames.,59139,59139,0,8,8,3512208,,,0,0,9,1159118747
10,1,8,Admin-1 capital,Bonao,,,0,Bonao,0,0,,0,0,Dominican Republic,DOM,Dominican Republic,DOM,Monseñor Nouel,DO,,18.9420031378,-70.4089975692,4,1,Added missing admin-1 capital. Population from GeoNames.,73269,73269,0,8,8,3511233,,,0,0,9,1159118765
10,1,8,Admin-1 capital,Baní,,,0,Bani,0,0,,0,0,Dominican Republic,DOM,Dominican Republic,DOM,Peravia,DO,,18.2799989978,-70.3310034658,4,1,Added missing admin-1 capital. Population from GeoNames.,66709,66709,0,8,8,3512067,,,0,0,9,1159118785
10,1,8,Admin-1 capital,Hato Mayor,,,0,Hato Mayor,0,0,,0,0,Dominican Republic,DOM,Dominican Republic,DOM,Hato Mayor,DO,,18.7640011362,-69.2569974727,4,1,Added missing admin-1 capital. Population from GeoNames.,35999,35999,0,7,7,3504765,,,0,0,7,1159118801
10,1,8,Admin-1 capital,Monte Plata,,,0,Monte Plata,0,0,,0,0,Dominican Republic,DOM,Dominican Republic,DOM,Monte Plata,DO,,18.807003058,-69.7840015328,4,1,Added missing admin-1 capital. Population from GeoNames.,15532,15532,0,6,6,3496134,,,0,0,9,1159118825
10,1,8,Admin-1 capital,Nagua,,,0,Nagua,0,0,,0,0,Dominican Republic,DOM,Dominican Republic,DOM,María Trinidad Sánchez,DO,,19.3760010789,-69.8470014929,4,1,Added missing admin-1 capital. Population from GeoNames.,33862,33862,0,7,7,3496021,,,0,0,7,1159118841
10,1,8,Admin-1 capital,Samaná,,,0,Samana,0,0,,0,0,Dominican Republic,DOM,Dominican Republic,DOM,Samaná,DO,,19.212003132,-69.3320036032,4,1,Added missing admin-1 capital. Population from GeoNames.,11432,11432,0,6,6,3492997,,,0,0,9,1159118863
10,1,8,Admin-1 capital,San Cristóbal,,,0,San Cristobal,0,0,,0,0,Dominican Republic,DOM,Dominican Republic,DOM,San Cristóbal,DO,,18.4159981025,-70.1090005176,4,1,Added missing admin-1 capital. Population from GeoNames.,154040,154040,0,9,9,3511540,,,0,0,9,1159118885
10,1,8,Admin-1 capital,El Seibo,,,0,El Seibo,0,0,,0,0,Dominican Republic,DOM,Dominican Republic,DOM,El Seybo,DO,,18.7640011362,-69.0350034607,4,1,Added missing admin-1 capital. Population from GeoNames.,23547,23547,0,7,7,3492984,,,0,0,9,1159118907
10,1,8,Admin-1 capital,Higuey,,,0,Higuey,0,0,,0,0,Dominican Republic,DOM,Dominican Republic,DOM,La Altagracia,DO,,18.6159960266,-68.7079974901,4,1,Added missing admin-1 capital. Population from GeoNames.,123787,123787,0,9,9,3493240,,,0,0,9,1159118923
10,1,8,Admin-1 capital,Georgetown,,,0,Georgetown,0,0,,0,0,"Gambia, The",GMB,The Gambia,GMB,Maccarthy Island,GM,,13.5510030831,-14.7670015233,4,1,Added missing admin-1 capital. Population from GeoNames.,3584,3584,0,4,4,2413437,,,0,0,9,1159118935
10,1,8,Admin-1 capital,Basse Santa Su,,,0,Basse Santa Su,0,0,,0,0,"Gambia, The",GMB,The Gambia,GMB,Upper River,GM,,13.3100011215,-14.2229964994,4,1,Added missing admin-1 capital. Population from GeoNames.,14380,14380,0,6,6,2413818,,,0,0,9,1159118951
10,1,8,Admin-1 capital,Kerewan,,,0,Kerewan,0,0,,0,0,"Gambia, The",GMB,The Gambia,GMB,Lower River,GM,,13.4939971067,-16.09499647,4,1,Added missing admin-1 capital. Population from GeoNames.,2751,2751,0,4,4,2412992,,,0,0,7,1159118969
10,1,8,Admin-1 capital,Mansa Konko,,,0,Mansa Konko,0,0,,0,0,"Gambia, The",GMB,The Gambia,GMB,Lower River,GM,,13.3773120964,-15.6785664397,4,1,Added missing admin-1 capital. Population from GeoNames.,18672,18672,0,6,6,2412605,,,0,0,9,1159118993
10,1,6,Admin-1 capital,Sunyani,,,0,Sunyani,0,0,,0,0,Ghana,GHA,Ghana,GHA,Brong Ahafo,GH,,7.33599899132,-2.33600341635,4,1,Added missing admin-1 capital. Population from GeoNames.,70299,70299,0,8,8,2295021,,,0,0,9,1159119007
10,1,7,Admin-1 capital,Ebebiyín,,,0,Ebebiyin,0,0,,0,0,Gabon,GAB,Gabon,GAB,Wouleu-Ntem,GA,,2.15299799566,11.330001556,4,1,Added missing admin-1 capital. Population from GeoNames.,24831,24831,0,7,7,2309332,,,0,0,9,1159119035
10,1,8,Admin-1 capital,Viljandi,,,0,Viljandi,0,0,,0,0,Estonia,EST,Estonia,EST,Viljandi,EE,,58.3638889,25.59,4,0,Added missing admin-1 capital round B. Population from GeoNames.,20309,20309,0,7,7,587577,,,0,0,7,1159119053
10,1,7,Admin-1 capital,Tchibanga,,,0,Tchibanga,0,0,,0,0,Gabon,GAB,Gabon,GAB,Nyanga,GA,,-2.85699595718,11.0269984937,4,1,Added missing admin-1 capital. Population from GeoNames.,19365,19365,0,6,6,2396253,,,0,0,7,1159119065
10,1,7,Admin-1 capital,Madingou,,,0,Madingou,0,0,,0,0,Congo (Brazzaville),COG,Congo (Brazzaville),COG,Bouenza,CG,,-4.16400294242,13.5540004942,4,1,Added missing admin-1 capital. Population from GeoNames.,22760,22760,0,7,7,2257990,,,0,0,7,1159119097
10,1,6,Admin-1 capital,Lamia,,,0,Lamia,0,0,,0,0,Greece,GRC,Greece,GRC,Stereá Elláda,GR,,38.8989991541,22.4340035755,4,1,Added missing admin-1 capital. Population from GeoNames.,47246,47246,0,7,7,258620,,,0,0,7,1159119107
10,1,6,Admin-1 capital,Polygyros,,,0,Polygyros,0,0,,0,0,Greece,GRC,Greece,GRC,Kentriki Makedonia,GR,,40.3810021302,23.4530014764,4,1,Added missing admin-1 capital. Population from GeoNames.,5258,5258,0,5,5,734517,,,0,0,7,1159119133
10,1,6,Admin-1 capital,Komatini,,,0,Komatini,0,0,,0,0,Greece,GRC,Greece,GRC,Anatoliki Makedonia kai Thraki,GR,,41.1333030908,25.4167025619,4,1,Added missing admin-1 capital. Population from GeoNames.,45631,45631,0,7,7,735640,,,0,0,6,1159119151
10,1,8,Admin-1 capital,B'abda,,,0,B'abda,0,0,,0,0,Lebanon,LBN,Lebanon,LBN,Mount Lebanon,LB,,33.8333040635,35.5332965182,4,1,Added missing admin-1 capital. Population from GeoNames.,9000,9000,0,5,5,277226,,,0,0,9,1159119175
10,1,8,Admin-1 capital,Ramla,,,0,Ramla,0,0,,0,0,Israel,IS1,Israel,ISR,HaMerkaz,IL,,31.9167001238,34.8667025234,4,1,Added missing admin-1 capital. Population from GeoNames.,63860,63860,0,8,8,293768,,,0,0,8,1159119203
10,1,8,Admin-1 capital,Nabatiye et Tahta,,,0,Nabatiye et Tahta,0,0,,0,0,Lebanon,LBN,Lebanon,LBN,An Nabatiyah,LB,,33.383304018,35.4500016422,4,1,Added missing admin-1 capital. Population from GeoNames.,80000,40000,0,8,7,278913,,,0,0,9,1159119221
10,1,8,Admin-0 region capital,Mariehamn,,,0,Mariehamn,0,0,,0,0,Finland,ALD,Aland,ALD,Finström,AX,,60.0969961849,19.9490044719,4,1,Added missing admin-1 capital. Changed feature to Admin-0 region capital. Population from GeoNames.,10682,10682,0,6,6,3041732,,,0,0,7,1159119239
10,1,7,Admin-1 capital,Hämeenlinna,,,0,Hameenlinna,0,0,,0,0,Finland,FIN,Finland,FIN,Tavastia Proper,FI,,60.9969961103,24.4719995427,4,1,Added missing admin-1 capital. Population from GeoNames.,47261,47261,0,7,7,659180,,,0,0,7,1159119251
10,1,7,Admin-1 capital,Kouvola,,,0,Kouvola,0,0,,0,0,Finland,FIN,Finland,FIN,Southern Finland,FI,,60.8760000851,26.7090035108,4,1,Added missing admin-1 capital. Population from GeoNames.,31133,31133,0,7,7,650859,,,0,0,7,1159119269
10,1,7,Admin-1 capital,Mikkeli,,,0,Mikkeli,0,0,,0,0,Finland,FIN,Finland,FIN,Southern Savonia,FI,,61.6899961671,27.2850034763,4,1,Added missing admin-1 capital. Population from GeoNames.,46550,46550,0,7,7,646005,,,0,0,6.1,1159119287
10,1,8,Admin-1 capital,Ban Houayxay,,,0,Ban Houayxay,0,0,,0,0,Laos,LAO,Laos,LAO,Bokeo,LA,,20.2775,100.4127778,4,0,Added missing admin-1 capital round B. Population from GeoNames.,6347,6347,0,5,5,1663526,,,0,0,8,1159119305
10,1,8,Admin-1 capital,Louang Namtha,,,0,Louang Namtha,0,0,,0,0,Laos,LAO,Laos,LAO,Louang Namtha,LA,,20.9500020476,101.416698599,4,1,Added missing admin-1 capital. Population from GeoNames.,3225,3225,0,4,4,1655562,,,0,0,7,1159119325
10,1,8,Admin-1 capital,Champasak,,,0,Champasak,0,0,,0,0,Laos,LAO,Laos,LAO,Champasak,LA,,14.8833001086,105.866703627,4,1,Added missing admin-1 capital. Population from GeoNames.,12994,12994,0,6,6,1657819,,,0,0,9,1159119355
10,1,8,Admin-1 capital,Saravan,,,0,Saravan,0,0,,0,0,Laos,LAO,Laos,LAO,Saravan,LA,,15.7159979953,106.426998696,4,1,Added missing admin-1 capital. Population from GeoNames.,5521,5521,0,5,5,1653334,,,0,0,7,1159119363
10,1,8,Admin-1 capital,Xam Nua,,,0,Xam Nua,0,0,,0,0,Laos,LAO,Laos,LAO,Houaphan,LA,,20.4166980246,104.033304705,4,1,Added missing admin-1 capital. Population from GeoNames.,38992,38992,0,7,7,1652203,,,0,0,8,1159119393
10,1,8,Admin-1 capital,Phongsali,,,0,Phongsali,0,0,,0,0,Laos,LAO,Laos,LAO,Phôngsali,LA,,21.6833039947,102.09999668,4,1,Added missing admin-1 capital. Population from GeoNames.,6000,6000,0,5,5,1653894,,,0,0,7,1159119411
10,1,8,Admin-1 capital,Attapu,,,0,Attapu,0,0,,0,0,Laos,LAO,Laos,LAO,Attapu,LA,,14.8079971004,106.839000549,4,1,Added missing admin-1 capital. Population from GeoNames.,4297,4297,0,4,4,1665046,,,0,0,7,1159119427
10,1,7,Admin-1 capital,Kinkala,,,0,Kinkala,0,0,,0,0,Congo (Brazzaville),COG,Congo (Brazzaville),COG,Pool,CG,,-4.35599989705,14.7619986062,4,1,Added missing admin-1 capital. Population from GeoNames.,13882,13882,0,6,6,2258984,,,0,0,7,1159119445
10,1,8,Admin-1 capital,Muineachan,,,0,Muineachan,0,0,,0,0,Ireland,IRL,Ireland,IRL,Monaghan,IE,,54.25,-6.9666667,4,0,Added missing admin-1 capital round B. Population from GeoNames.,5937,5937,0,5,5,2962568,,,0,0,7,1159119463
10,1,8,Admin-1 capital,Vejle,,,0,Vejle,0,0,,0,0,Denmark,DNK,Denmark,DNK,Syddanmark,DK,,55.7090010284,9.53499649845,4,1,Added missing admin-1 capital. Population from GeoNames.,51177,51177,0,8,8,2610613,,,0,0,6.7,1159119483
10,1,8,Admin-1 capital,Hillerød,,,0,Hillerod,0,0,,0,0,Denmark,DNK,Denmark,DNK,Hovedstaden,DK,,55.9332990694,12.3166985359,4,1,Added missing admin-1 capital. Population from GeoNames.,28313,28313,0,7,7,2620320,,,0,0,7,1159119497
10,1,8,Admin-1 capital,Sorø,,,0,Soro,0,0,,0,0,Denmark,DNK,Denmark,DNK,Sjaælland,DK,,55.4329981145,11.5667016044,4,1,Added missing admin-1 capital. Population from GeoNames.,7167,7167,0,5,5,2612862,,,0,0,7,1159119505
10,1,8,Admin-1 capital,Mali,,,0,Mali,0,0,,0,0,Guinea,GIN,Guinea,GIN,Labe,GN,,12.084003021,-12.3010014331,4,1,Added missing admin-1 capital. Population from GeoNames.,5479,5479,0,5,5,2417886,,,0,0,7,1159119537
10,1,8,Admin-1 capital,Tongue,,,0,Tongue,0,0,,0,0,Guinea,GIN,Guinea,GIN,Labe,GN,,11.4399990351,-11.670002477,4,1,Added missing admin-1 capital. Population from GeoNames.,25531,25531,0,7,7,2414545,,,0,0,7,1159119553
10,1,8,Admin-1 capital,Kouroussa,,,0,Kouroussa,0,0,,0,0,Guinea,GIN,Guinea,GIN,Kankan,GN,,10.6530031016,-9.89199854863,4,1,Added missing admin-1 capital. Population from GeoNames.,14223,14223,0,6,6,2418437,,,0,0,7,1159119571
10,1,8,Admin-1 capital,Pita,,,0,Pita,0,0,,0,0,Guinea,GIN,Guinea,GIN,Mamou,GN,,11.0799990981,-12.4010005606,4,1,Added missing admin-1 capital. Population from GeoNames.,20052,20052,0,7,7,2416443,,,0,0,9,1159119589
10,1,8,Admin-1 capital,Dalaba,,,0,Dalaba,0,0,,0,0,Guinea,GIN,Guinea,GIN,Mamou,GN,,10.6560000106,-12.272003566,4,1,Added missing admin-1 capital. Population from GeoNames.,6349,6349,0,5,5,2422383,,,0,0,9,1159119601
10,1,8,Admin-1 capital,Boffa,,,0,Boffa,0,0,,0,0,Guinea,GIN,Guinea,GIN,Boke,GN,,10.1850030675,-14.0429964481,4,1,Added missing admin-1 capital. Population from GeoNames.,2332,2332,0,4,4,2422968,,,0,0,7,1159119617
10,1,8,Admin-1 capital,Koundara,,,0,Koundara,0,0,,0,0,Guinea,GIN,Guinea,GIN,Boke,GN,,12.4800031007,-13.2959964256,4,1,Added missing admin-1 capital. Population from GeoNames.,13990,13990,0,6,6,2418596,,,0,0,7,1159119637
10,1,8,Admin-1 capital,Gaoual,,,0,Gaoual,0,0,,0,0,Guinea,GIN,Guinea,GIN,Boke,GN,,11.7540001414,-13.2129984273,4,1,Added missing admin-1 capital. Population from GeoNames.,7461,7461,0,5,5,2420826,,,0,0,9,1159119665
10,1,8,Admin-1 capital,Télimélé,,,0,Telimele,0,0,,0,0,Guinea,GIN,Guinea,GIN,Kindia,GN,,10.9050031072,-13.0429975607,4,1,Added missing admin-1 capital. Population from GeoNames.,30311,30311,0,7,7,2414926,,,0,0,9,1159119683
10,1,8,Admin-1 capital,Forecariah,,,0,Forecariah,0,0,,0,0,Guinea,GIN,Guinea,GIN,Kindia,GN,,9.4300020756,-13.0979965512,4,1,Added missing admin-1 capital. Population from GeoNames.,12358,12358,0,6,6,2420985,,,0,0,7,1159119699
10,1,8,Admin-1 capital,Beyla,,,0,Beyla,0,0,,0,0,Guinea,GIN,Guinea,GIN,Nzerekore,GN,,8.68699798703,-8.65700045383,4,1,Added missing admin-1 capital. Population from GeoNames.,13204,13204,0,6,6,2423126,,,0,0,7,1159119717
10,1,8,Admin-1 capital,Gueckedou,,,0,Gueckedou,0,0,,0,0,Guinea,GIN,Guinea,GIN,Nzerekore,GN,,8.55399612239,-10.1510004988,4,1,Added missing admin-1 capital. Population from GeoNames.,221715,221715,0,10,10,2420562,,,0,0,9,1159119737
10,1,8,Admin-1 capital,Dinguiraye,,,0,Dinguiraye,0,0,,0,0,Guinea,GIN,Guinea,GIN,Faranah,GN,,11.2989960356,-10.7260014395,4,1,Added missing admin-1 capital. Population from GeoNames.,6062,6062,0,5,5,2421903,,,0,0,7,1159119755
10,1,8,Admin-1 capital,Dabola,,,0,Dabola,0,0,,0,0,Guinea,GIN,Guinea,GIN,Faranah,GN,,10.7479980032,-11.1089964894,4,1,Added missing admin-1 capital. Population from GeoNames.,13057,13057,0,6,6,2422442,,,0,0,7,1159119773
10,1,8,Admin-1 capital,Touba,,,0,Touba,0,0,,0,0,Ivory Coast,CIV,Ivory Coast,CIV,Bafing,CI,,8.28000002881,-7.68400154925,4,1,Added missing admin-1 capital. Population from GeoNames.,27504,27504,0,7,7,2280376,,,0,0,7,1159119785
10,1,8,Admin-1 capital,Bouaflé,,,0,Bouafle,0,0,,0,0,Ivory Coast,CIV,Ivory Coast,CIV,Marahoué,CI,,6.97799710395,-5.74800242826,4,1,Added missing admin-1 capital. Population from GeoNames.,60962,60962,0,8,8,2290964,,,0,0,9,1159119809
10,1,8,Admin-1 capital,Divo,,,0,Divo,0,0,,0,0,Ivory Coast,CIV,Ivory Coast,CIV,Sud-Bandama,CI,,5.83900203727,-5.36000348347,4,1,Added missing admin-1 capital. Population from GeoNames.,127867,127867,0,9,9,2289887,,,0,0,7,1159119825
10,1,8,Admin-1 capital,Toumodi,,,0,Toumodi,0,0,,0,0,Ivory Coast,CIV,Ivory Coast,CIV,Lacs,CI,,6.5520001323,-5.01900239435,4,1,Added missing admin-1 capital. Population from GeoNames.,39005,39005,0,7,7,2280316,,,0,0,7,1159119843
10,1,8,Admin-1 capital,Aboisso,,,0,Aboisso,0,0,,0,0,Ivory Coast,CIV,Ivory Coast,CIV,Sud-Comoé,CI,,5.46669905207,-3.20000353009,4,1,Added missing admin-1 capital. Population from GeoNames.,37654,37654,0,7,7,2293507,,,0,0,7,1159119863
10,1,8,Admin-1 capital,Santa Cruz Del Quiche,,,0,Santa Cruz Del Quiche,0,0,,0,0,Guatemala,GTM,Guatemala,GTM,Quiché,GT,,15.0333031025,-91.1332976255,4,1,Added missing admin-1 capital. Population from GeoNames.,23618,23618,0,7,7,3589404,,,0,0,9,1159119879
10,1,6,Admin-1 capital,Buea,,,0,Buea,0,0,,0,0,Cameroon,CMR,Cameroon,CMR,Sud-Ouest,CM,,4.15500308735,9.23100351293,4,1,Added missing admin-1 capital. Population from GeoNames.,90088,90088,0,8,8,2233410,,,0,0,9,1159119899
10,1,8,Admin-1 capital,Krujë,,,0,Kruje,0,0,,0,0,Albania,ALB,Albania,ALB,Durrës,AL,,41.518998172,19.7970035938,4,1,Added missing admin-1 capital. Population from GeoNames.,21286,21286,0,7,7,3185082,,,0,0,9,1159119919
10,1,8,Admin-1 capital,Fier,,,0,Fier,0,0,,0,0,Albania,ALB,Albania,ALB,Fier,AL,,40.7300040233,19.5730025959,4,1,Added missing admin-1 capital. Population from GeoNames.,82297,57198,0,8,8,3185672,,,0,0,9,1159119937
10,1,8,Admin-1 capital,Lushnjë,,,0,Lushnje,0,0,,0,0,Albania,ALB,Albania,ALB,Fier,AL,,40.940001132,19.7160034797,4,1,Added missing admin-1 capital. Population from GeoNames.,41469,41469,0,7,7,3184862,,,0,0,9,1159119955
10,1,8,Admin-1 capital,Pukë,,,0,Puke,0,0,,0,0,Albania,ALB,Albania,ALB,Shkodër,AL,,42.0333030162,19.8833044805,4,1,Added missing admin-1 capital. Population from GeoNames.,6495,6495,0,5,5,3184388,,,0,0,9,1159119975
10,1,8,Admin-1 capital,Bajram Curri,,,0,Bajram Curri,0,0,,0,0,Albania,ALB,Albania,ALB,Kukës,AL,,42.3333000678,20.08330257,4,1,Added missing admin-1 capital. Population from GeoNames.,7967,7967,0,5,5,783708,,,0,0,9,1159119991
10,1,8,Admin-1 capital,Kukës,,,0,Kukes,0,0,,0,0,Albania,ALB,Albania,ALB,Kukës,AL,,42.0830010687,20.4339965335,4,1,Added missing admin-1 capital. Population from GeoNames.,17832,17832,0,6,6,782661,,,0,0,9,1159120009
10,1,8,Admin-1 capital,Sarandë,,,0,Sarande,0,0,,0,0,Albania,ALB,Albania,ALB,Vlorë,AL,,39.877002119,19.9999985924,4,1,Added missing admin-1 capital. Population from GeoNames.,15147,15147,0,6,6,363243,,,0,0,9,1159120029
10,1,8,Admin-1 capital,Ersekë,,,0,Erseke,0,0,,0,0,Albania,ALB,Albania,ALB,Korçë,AL,,40.3333021274,20.6832965077,4,1,Added missing admin-1 capital. Population from GeoNames.,7890,7890,0,5,5,783259,,,0,0,9,1159120047
10,1,8,Admin-1 capital,Pogradec,,,0,Pogradec,0,0,,0,0,Albania,ALB,Albania,ALB,Kor,AL,,40.8999961193,20.6640006166,4,1,Added missing admin-1 capital.,40000,30000,0,7,7,-1,,,0,0,7.7,1159120063
10,1,8,Admin-1 capital,Korçë,,,0,Korce,0,0,,0,0,Albania,ALB,Albania,ALB,Korçë,AL,,40.6166760144,20.7666635346,4,1,Added missing admin-1 capital. Population from GeoNames.,58259,58259,0,8,8,782756,,,0,0,9,1159120077
10,1,8,Admin-1 capital,Berat,,,0,Berat,0,0,,0,0,Albania,ALB,Albania,ALB,Berat,AL,,40.7099970489,19.9719995847,4,1,Added missing admin-1 capital. Population from GeoNames.,46866,46866,0,7,7,3186084,,,0,0,9,1159120101
10,1,8,Admin-1 capital,Çorovodë,,,0,Corovode,0,0,,0,0,Albania,ALB,Albania,ALB,Berat,AL,,40.5167040262,20.2332966278,4,1,Added missing admin-1 capital. Population from GeoNames.,14046,14046,0,6,6,783408,,,0,0,9,1159120119
10,1,8,Admin-1 capital,Gramsh,,,0,Gramsh,0,0,,0,0,Albania,ALB,Albania,ALB,Elbasan,AL,,40.8666960081,20.1999965165,4,1,Added missing admin-1 capital. Population from GeoNames.,11556,11556,0,6,6,783059,,,0,0,9,1159120129
10,1,8,Admin-1 capital,Librazhd,,,0,Librazhd,0,0,,0,0,Albania,ALB,Albania,ALB,Elbasan,AL,,41.200002107,20.3667035964,4,1,Added missing admin-1 capital. Population from GeoNames.,12691,12691,0,6,6,832209,,,0,0,8,1159120149
10,1,8,Admin-1 capital,Tepelenë,,,0,Tepelene,0,0,,0,0,Albania,ALB,Albania,ALB,Gjirokastër,AL,,40.2832980956,20.0332985382,4,1,Added missing admin-1 capital. Population from GeoNames.,11955,11955,0,6,6,781443,,,0,0,9,1159120171
10,1,8,Admin-1 capital,Përmet,,,0,Permet,0,0,,0,0,Albania,ALB,Albania,ALB,Gjirokastër,AL,,40.2339960454,20.3519975601,4,1,Added missing admin-1 capital. Population from GeoNames.,10686,10686,0,6,6,782070,,,0,0,9,1159120189
10,1,8,Admin-1 capital,Gjirokastër,,,0,Gjirokaster,0,0,,0,0,Albania,ALB,Albania,ALB,Gjirokastër,AL,,40.0789980928,20.1490025614,4,1,Added missing admin-1 capital. Population from GeoNames.,23437,23437,0,7,7,783148,,,0,0,7,1159120207
10,1,8,Admin-1 capital,Peshkopi,,,0,Peshkopi,0,0,,0,0,Albania,ALB,Albania,ALB,Dibër,AL,,41.6833020982,20.4333034879,4,1,Added missing admin-1 capital. Population from GeoNames.,14848,14848,0,6,6,782061,,,0,0,9,1159120227
10,1,8,Admin-1 capital,Burrel,,,0,Burrel,0,0,,0,0,Albania,ALB,Albania,ALB,Dibër,AL,,41.6259990787,20.0160005313,4,1,Added missing admin-1 capital. Population from GeoNames.,15405,15405,0,6,6,783493,,,0,0,9,1159120241
10,1,8,Admin-1 capital,Lezhë,,,0,Lezhe,0,0,,0,0,Albania,ALB,Albania,ALB,Lezhë,AL,,41.7879991414,19.6540025445,4,1,Added missing admin-1 capital. Population from GeoNames.,18695,18695,0,6,6,3184935,,,0,0,9,1159120259
10,1,8,Admin-1 capital,Rrëshen,,,0,Rreshen,0,0,,0,0,Albania,ALB,Albania,ALB,Lezhë,AL,,41.7833010603,19.8167045889,4,1,Added missing admin-1 capital. Population from GeoNames.,10064,10064,0,6,6,3184264,,,0,0,9,1159120277
10,1,8,Admin-1 capital,Ashtarak,,,0,Ashtarak,0,0,,0,0,Armenia,ARM,Armenia,ARM,Aragatsotn,AM,,40.3016667,44.3591667,4,0,Added missing admin-1 capital round B. Population from GeoNames.,18779,18779,0,6,6,616877,,,0,0,9,1159120297
10,1,8,Admin-1 capital,Mons,,,0,Mons,0,0,,0,0,Belgium,BEL,Belgium,BEL,Hainaut,BE,,50.445999109,3.93900356095,4,1,Added missing admin-1 capital. Population from GeoNames.,91277,91277,0,8,8,2790869,,,0,0,8,1159120321
10,1,8,Admin-1 capital,Hasselt,,,0,Hasselt,0,0,,0,0,Belgium,BEL,Belgium,BEL,Limburg,BE,,50.9640031748,5.483997561,4,1,Added missing admin-1 capital. Population from GeoNames.,69222,69222,0,8,8,2796491,,,0,0,7,1159120339
10,1,8,Admin-1 capital,Ijevan,,,0,Ijevan,0,0,,0,0,Armenia,ARM,Armenia,ARM,Tavush,AM,,40.8755556,45.1491667,4,0,Added missing admin-1 capital round B. Population from GeoNames.,14737,14737,0,6,6,616627,,,0,0,7,1159120357
10,1,8,Admin-1 capital,Artashat,,,0,Artashat,0,0,,0,0,Armenia,ARM,Armenia,ARM,Ararat,AM,,39.9538889,44.5505556,4,0,Added missing admin-1 capital round B. Population from GeoNames.,20562,20562,0,7,7,174979,,,0,0,9,1159120381
10,1,8,Admin-1 capital,Gavarr,,,0,Gavarr,0,0,,0,0,Armenia,ARM,Armenia,ARM,Gegharkunik,AM,,40.3588889,45.1266667,4,0,Added missing admin-1 capital round B. Population from GeoNames.,21680,21680,0,7,7,616599,,,0,0,7,1159120397
10,1,8,Admin-1 capital,Gadabay,,,0,Gadabay,0,0,,0,0,Azerbaijan,AZE,Azerbaijan,AZE,G?d?b?y,AZ,,40.5655556,45.8161111,4,0,Added missing admin-1 capital round B. Population from GeoNames.,8657,8657,0,5,5,586573,,,0,0,9,1159120421
10,1,8,Admin-1 capital,Goranboy,,,0,Goranboy,0,0,,0,0,Azerbaijan,AZE,Azerbaijan,AZE,Goranboy,AZ,,40.6102778,46.7897222,4,0,Added missing admin-1 capital round B. Population from GeoNames.,7333,7333,0,5,5,586430,,,0,0,9,1159120437
10,1,8,Admin-1 capital,Tovuz,,,0,Tovuz,0,0,,0,0,Azerbaijan,AZE,Azerbaijan,AZE,Tovuz,AZ,,40.9922222,45.6288889,4,0,Added missing admin-1 capital round B. Population from GeoNames.,12626,12626,0,6,6,584821,,,0,0,9,1159120461
10,1,8,Historic place,Agdam,,,0,Agdam,0,0,,0,0,Azerbaijan,AZE,Azerbaijan,AZE,Tovuz,AZ,Uninhabited,40.9052778,45.5563889,4,0,Added missing admin-1 capital round B. Population from GeoNames.,0,0,0,0,0,587381,,,0,0,7,1159120479
10,1,8,Admin-1 capital,Qabala,,,0,Qabala,0,0,,0,0,Azerbaijan,AZE,Azerbaijan,AZE,Q?b?l?,AZ,,40.9813889,47.8458333,4,0,Added missing admin-1 capital round B. Population from GeoNames.,11867,11867,0,6,6,585231,,,0,0,9,1159120491
10,1,8,Admin-1 capital,Oğuz,,,0,Oguz,0,0,,0,0,Azerbaijan,AZE,Azerbaijan,AZE,Oguz,AZ,,41.0708333,47.4583333,4,0,Added missing admin-1 capital round B. Population from GeoNames.,6876,6876,0,5,5,585333,,,0,0,7,1159120515
10,1,8,Admin-1 capital,Yeghegnadzor,,,0,Yeghegnadzor,0,0,,0,0,Armenia,ARM,Armenia,ARM,Vayots Dzor,AM,,39.7611111,45.3333333,4,0,Added missing admin-1 capital round B. Population from GeoNames.,8200,8200,0,5,5,174710,,,0,0,9,1159120533
10,1,5,Admin-1 capital,Qala i Naw,,Qal eh-ye Now,0,Qala i Naw,0,0,,0,0,Afghanistan,AFG,Afghanistan,AFG,Badghis,AF,,34.983000131,63.1332996367,4,1,Added missing admin-1 capital.,2997,2997,0,4,4,1129867,,,0,0,7,1159120551
10,1,5,Admin-1 capital,Chaghcharan,,,0,Chaghcharan,0,0,,0,0,Afghanistan,AFG,Afghanistan,AFG,Ghor,AF,,34.5167011035,65.2500006252,4,1,Added missing admin-1 capital.,15000,15000,0,6,6,-1,,,0,0,7,1159120569
10,1,5,Admin-1 capital,Lashkar Gah,,,0,Lashkar Gah,0,0,,0,0,Afghanistan,AFG,Afghanistan,AFG,Hilmand,AF,,31.5829980224,64.3599995534,4,1,Added missing admin-1 capital.,201546,201546,0,10,10,-1,,,0,0,7,1159120587
10,1,5,Admin-1 capital,Zaranj,,,0,Zaranj,0,0,,0,0,Afghanistan,AFG,Afghanistan,AFG,Nimroz,AF,,31.1120010793,61.8869975186,4,1,Added missing admin-1 capital.,49851,49851,0,7,7,-1,,,0,0,7,1159120605
10,1,5,Admin-1 capital,Tarin Kowt,,,0,Tarin Kowt,0,0,,0,0,Afghanistan,AFG,Afghanistan,AFG,Uruzgan,AF,,32.6332981503,65.8666986489,4,1,Added missing admin-1 capital.,10000,10000,0,5,5,1122747,,,0,0,7,1159120625
10,1,5,Admin-1 capital,Zareh Sharan,,,0,Zareh Sharan,0,0,,0,0,Afghanistan,AFG,Afghanistan,AFG,Paktika,AF,,32.8500001605,68.4167045329,4,1,Added missing admin-1 capital. Population from GeoNames.,13737,13737,0,6,6,1120863,,,0,0,7,1159120645
10,1,5,Admin-1 capital,Asadabad,,,0,Asadabad,0,0,,0,0,Afghanistan,AFG,Afghanistan,AFG,Kunar,AF,,34.8660000397,71.1500045859,4,1,Added missing admin-1 capital.,48400,48400,0,7,7,-1,,,0,0,7,1159120671
10,1,5,Admin-1 capital,Taloqan,,,0,Taloqan,0,0,,0,0,Afghanistan,AFG,Afghanistan,AFG,Takhar,AF,,36.7299990409,69.54000364,4,1,Added missing admin-1 capital. Population from GeoNames.,64256,64256,0,8,8,1123004,,,0,0,7,1159120693
10,1,5,Admin-1 capital,Mahmud-E Eraqi,,,0,Mahmud-E Eraqi,0,0,,0,0,Afghanistan,AFG,Afghanistan,AFG,Kapisa,AF,,35.0166960791,69.333300649,4,1,Added missing admin-1 capital.,7407,7407,0,5,5,1126606,,,0,0,9,1159120711
10,1,5,Admin-1 capital,Mehtar Lam,,,0,Mehtar Lam,0,0,,0,0,Afghanistan,AFG,Afghanistan,AFG,Laghman,AF,,34.6500000113,70.1667005174,4,1,Added missing admin-1 capital. Population from GeoNames.,17345,17345,0,6,6,1133574,,,0,0,9,1159120727
10,1,5,Admin-1 capital,Baraki Barak,,,0,Baraki Barak,0,0,,0,0,Afghanistan,AFG,Afghanistan,AFG,Logar,AF,,33.966702096,68.9667035404,4,1,Added missing admin-1 capital. Population from GeoNames.,22305,22305,0,7,7,1147066,,,0,0,7,1159120743
10,1,5,Admin-1 capital,Aybak,,,0,Aybak,0,0,,0,0,Afghanistan,AFG,Afghanistan,AFG,Samangan,AF,,36.2610001475,68.0400005098,4,1,Added missing admin-1 capital.,24000,24000,0,7,7,7053818,,,0,0,7,1159120765
